endid,endname,end_lat,end_long,geometry,zipcode
126,Esprit Park,37.761635,-122.39065,POINT (-122.39065 37.761635),94107
BK-A7,Vine St at Shattuck Ave,37.880222,-122.26959,POINT (-122.26959 37.880222),94709
BK-B7,Virginia St at Shattuck Ave,37.87657,-122.26953,POINT (-122.26953 37.87657),94709
BK-B9,Hearst Ave at Euclid Ave,37.87511,-122.26055,POINT (-122.26055 37.87511),94709
BK-C1,Fifth St at Delaware St,37.870407,-122.299675,POINT (-122.299675 37.870407),94710
BK-C5,North Berkeley BART Station,37.873558,-122.2831,POINT (-122.2831 37.873558),94702
BK-C6,MLK Jr Way at University Ave,37.87172,-122.27307,POINT (-122.27307 37.87172),94704
BK-C7,Shattuck Ave at Hearst Ave,37.873676,-122.268486,POINT (-122.268486 37.873676),94704
BK-C8,University Ave at Oxford St,37.872356,-122.26645,POINT (-122.26645 37.872356),94704
BK-D1,Addison St at Fourth St,37.86625,-122.29937,POINT (-122.29937 37.86625),94710
BK-D10,Bancroft Way at College Ave,37.86936,-122.25434,POINT (-122.25434 37.86936),94720
BK-D2,10th St at University Ave,37.86906,-122.293396,POINT (-122.293396 37.86906),94710
BK-D4,West St at University Ave,37.86997,-122.28653,POINT (-122.28653 37.86997),94702
BK-D5,California St at University Ave,37.870556,-122.27972,POINT (-122.27972 37.870556),94703
BK-D7-1,Downtown Berkeley BART,37.87014,-122.268425,POINT (-122.268425 37.87014),94704
BK-D7-2,Berkeley Civic Center,37.86906,-122.27055,POINT (-122.27055 37.86906),94704
BK-E10,Haste St at College Ave,37.866417,-122.2538,POINT (-122.2538 37.866417),94704
BK-E2,Channing Way at San Pablo Ave,37.862827,-122.29023,POINT (-122.29023 37.862827),94710
BK-E7,Channing Way at Shattuck Ave,37.865845,-122.26744,POINT (-122.26744 37.865845),94704
BK-E8,Fulton St at Bancroft Way,37.86779,-122.2659,POINT (-122.2659 37.86779),94704
BK-E9-1,Bancroft Way at Telegraph Ave,37.868813,-122.258766,POINT (-122.258766 37.868813),94704
BK-E9-2,Haste St at Telegraph Ave,37.866043,-122.258804,POINT (-122.258804 37.866043),94704
BK-F10,Derby St at College Ave,37.861805,-122.25357,POINT (-122.25357 37.861805),94705
BK-F2,Ninth St at Parker St,37.858868,-122.29121,POINT (-122.29121 37.858868),94710
BK-F7,Milvia St at Derby St,37.860126,-122.26939,POINT (-122.26939 37.860126),94704
BK-F8,Parker St at Fulton St,37.862465,-122.26479,POINT (-122.26479 37.862465),94704
BK-G4,San Pablo Park,37.85578,-122.28313,POINT (-122.28313 37.85578),94702
BK-G7,Oregon St at Adeline St,37.857567,-122.267555,POINT (-122.267555 37.857567),94703
BK-G8,Ellsworth St at Russell St,37.85749,-122.26158,POINT (-122.26158 37.85749),94705
BK-G9,Telegraph Ave at Carleton St,37.86232,-122.258804,POINT (-122.258804 37.86232),94704
BK-H10,Russell St at College Ave,37.858475,-122.25325,POINT (-122.25325 37.858475),94705
BK-H3,Ninth St at Heinz Ave,37.85391,-122.289696,POINT (-122.289696 37.85391),94710
BK-H6,Ashby BART Station,37.852478,-122.27021,POINT (-122.27021 37.852478),94703
BK-H8,Fulton St at Ashby Ave,37.855576,-122.263565,POINT (-122.263565 37.855576),94705
BK-H9,Telegraph Ave at Ashby Ave,37.855957,-122.259796,POINT (-122.259796 37.855957),94705
BK-I5,Woolsey St at Sacramento St,37.85058,-122.278175,POINT (-122.278175 37.85058),94702
BK-I6,Harmon St at Adeline St,37.849735,-122.270584,POINT (-122.270584 37.849735),94703
EM-A1,59th St at Horton St,37.840946,-122.29136,POINT (-122.29136 37.840946),94608
EM-A2,Doyle St at 59th St,37.841923,-122.28805,POINT (-122.28805 37.841923),94608
EM-B0-2,2100 Powell St,37.839542,-122.29872,POINT (-122.29872 37.839542),94608
EM-B1,Emeryville Public Market,37.840523,-122.293526,POINT (-122.293526 37.840523),94608
EM-B2,Stanford Ave at Hollis St,37.838444,-122.288666,POINT (-122.288666 37.838444),94608
EM-C1,65th St at Hollis St,37.846783,-122.291374,POINT (-122.291374 37.846783),94608
EM-C2,53rd St at Hollis St,37.83618,-122.28718,POINT (-122.28718 37.83618),94608
EM-C3,47th St at San Pablo Ave,37.835632,-122.28105,POINT (-122.28105 37.835632),94608
EM-D2,Horton St at 40th St,37.829704,-122.28761,POINT (-122.28761 37.829704),94608
EM-D3,Emeryville Town Hall,37.831276,-122.28564,POINT (-122.28564 37.831276),94608
EM-D4,Adeline St at 40th St,37.831276,-122.27827,POINT (-122.27827 37.831276),94608
OK-A2,Telegraph Ave at Alcatraz Ave,37.850224,-122.26017,POINT (-122.26017 37.850224),94609
OK-A4,College Ave at Harwood Ave,37.848152,-122.25216,POINT (-122.25216 37.848152),94618
OK-B2,Bushrod Park,37.846516,-122.265305,POINT (-122.265305 37.846516),94609
OK-B3,Telegraph Ave at 58th St,37.844494,-122.26135,POINT (-122.26135 37.844494),94609
OK-B4,Rockridge BART Station,37.84428,-122.2519,POINT (-122.2519 37.84428),94618
OK-B5,College Ave at Taft Ave,37.8418,-122.25153,POINT (-122.25153 37.8418),94618
OK-C2,Dover St at 57th St,37.84263,-122.26774,POINT (-122.26774 37.84263),94609
OK-C3,55th St at Telegraph Ave,37.840187,-122.261826,POINT (-122.261826 37.840187),94609
OK-C4,Miles Ave at Cavour St,37.8388,-122.258736,POINT (-122.258736 37.8388),94618
OK-D2,Genoa St at 55th St,37.83965,-122.27176,POINT (-122.27176 37.83965),94608
OK-D3-2,Shattuck Ave at 51st St,37.8368,-122.264,POINT (-122.264 37.8368),94609
OK-D4,49th St at Telegraph Ave,37.835945,-122.26237,POINT (-122.26237 37.835945),94609
OK-D5,Broadway at Coronado Ave,37.83579,-122.25162,POINT (-122.25162 37.83579),94618
OK-E2,Market St at 45th St,37.834175,-122.272964,POINT (-122.272964 37.834175),94608
OK-E3,45th St at MLK Jr Way,37.833557,-122.26742,POINT (-122.26742 37.833557),94609
132,24th St at Chattanooga St,37.75182,-122.42661,POINT (-122.42661 37.75182),94114
OK-E4,Shattuck Ave at Telegraph Ave,37.83328,-122.26349,POINT (-122.26349 37.83328),94609
OK-F3,West St at 40th St,37.830223,-122.27095,POINT (-122.27095 37.830223),94609
OK-F4,MacArthur BART Station,37.82841,-122.26631,POINT (-122.26631 37.82841),94609
OK-G2,Market St at 40th St,37.830544,-122.27393,POINT (-122.27393 37.830544),94608
OK-G3,37th St at West St,37.826694,-122.2718,POINT (-122.2718 37.826694),94609
OK-G4,MacArthur Blvd at Telegraph Ave,37.826286,-122.2651,POINT (-122.2651 37.826286),94609
OK-G5,Mosswood Park,37.824894,-122.26044,POINT (-122.26044 37.824894),94609
OK-H2,32nd St at Adeline St,37.82385,-122.28119,POINT (-122.28119 37.82385),94608
OK-H3,Market St at Brockhurst St,37.823322,-122.275734,POINT (-122.275734 37.823322),94608
OK-H4-3,34th St at Telegraph Ave,37.822548,-122.26632,POINT (-122.26632 37.822548),94609
OK-H5,Broadway at 30th St,37.81938,-122.261925,POINT (-122.261925 37.81938),94611
OK-H9-1,Grand Ave at Santa Clara Ave,37.812744,-122.247215,POINT (-122.247215 37.812744),94610
OK-H9-2,Lakeshore Ave at Trestle Glen Rd,37.81108,-122.24327,POINT (-122.24327 37.81108),94610
OK-I3,San Pablo Ave at 27th St,37.817825,-122.275696,POINT (-122.275696 37.817825),94612
OK-I4,27th St at MLK Jr Way,37.817017,-122.27176,POINT (-122.27176 37.817017),94612
OK-I5,Telegraph Ave at 27th St,37.816074,-122.26788,POINT (-122.26788 37.816074),94612
OK-I6,Bay Pl at Vernon St,37.812313,-122.26078,POINT (-122.26078 37.812313),94610
OK-I8,Grand Ave at Perkins St,37.808895,-122.25646,POINT (-122.25646 37.808895),94610
OK-I9,El Embarcadero at Grand Ave,37.80885,-122.24968,POINT (-122.24968 37.80885),94610
OK-J3,24th St at Market St,37.81606,-122.278244,POINT (-122.278244 37.81606),94607
OK-J4,Isabella St at San Pablo Ave,37.814987,-122.27484,POINT (-122.27484 37.814987),94612
OK-J5,Telegraph Ave at 23rd St,37.81268,-122.268776,POINT (-122.268776 37.81268),94612
OK-J6-1,Grand Ave at Webster St,37.81138,-122.26519,POINT (-122.26519 37.81138),94612
OK-K2,DeFremery Park,37.812332,-122.28517,POINT (-122.28517 37.812332),94607
OK-K3,Marston Campbell Park,37.809822,-122.28019,POINT (-122.28019 37.809822),94607
OK-K4,San Pablo Ave at MLK Jr Way,37.81135,-122.27342,POINT (-122.27342 37.81135),94612
OK-K5-1,Telegraph Ave at 19th St,37.8087,-122.26993,POINT (-122.26993 37.8087),94612
OK-K5-2,19th Street BART Station,37.80937,-122.26795,POINT (-122.26795 37.80937),94612
OK-K6,Webster St at 19th St,37.80697,-122.26659,POINT (-122.26659 37.80697),94612
OK-K7,Madison St at 17th St,37.804035,-122.26241,POINT (-122.26241 37.804035),94612
OK-K9,2nd Ave at E 18th St,37.800213,-122.25381,POINT (-122.25381 37.800213),94606
OK-L10,6th Ave at E 12th St (Temporary Location),37.794395,-122.253845,POINT (-122.253845 37.794395),94606
OK-L11,10th Ave at E 15th St,37.792713,-122.24878,POINT (-122.24878 37.792713),94606
OK-L12,San Antonio Park,37.79014,-122.24237,POINT (-122.24237 37.79014),94606
OK-L13,21st St at 5th Ave,37.80046,-122.24746,POINT (-122.24746 37.80046),94606
OK-L14,23rd Ave at Foothill Blvd,37.78519,-122.23438,POINT (-122.23438 37.78519),94601
OK-L16,Foothill Blvd at Fruitvale Ave,37.783756,-122.2226,POINT (-122.2226 37.783756),94601
OK-L19,Bond St at High St,37.774155,-122.212395,POINT (-122.212395 37.774155),94601
OK-L2,14th St at Mandela Pkwy,37.81074,-122.29141,POINT (-122.29141 37.81074),94607
OK-L3,14th St at Filbert St,37.80875,-122.28328,POINT (-122.28328 37.80875),94607
OK-L4,MLK Jr Way at 14th St,37.806164,-122.27604,POINT (-122.27604 37.806164),94612
OK-L5,Frank H Ogawa Plaza,37.80456,-122.271736,POINT (-122.271736 37.80456),94612
OK-L6,13th St at Franklin St,37.80319,-122.27058,POINT (-122.27058 37.80319),94612
OK-L6-2,13th St at Webster St,37.80269,-122.26915,POINT (-122.26915 37.80269),94612
OK-L7,Jackson St at 11th St,37.800003,-122.26644,POINT (-122.26644 37.800003),94607
OK-L7-2,Lakeside Dr at 14th St,37.80132,-122.26264,POINT (-122.26264 37.80132),94612
OK-L8,10th St at Fallon St,37.797672,-122.263,POINT (-122.263 37.797672),94607
OK-L9,4th Ave at E 12th St (Temporary Location),37.795914,-122.25555,POINT (-122.25555 37.795914),94606
OK-M1,West Oakland BART Station,37.805317,-122.29484,POINT (-122.29484 37.805317),94607
OK-M2,Union St at 10th St,37.80724,-122.28937,POINT (-122.28937 37.80724),94607
OK-M3,Market St at 8th St,37.803688,-122.28249,POINT (-122.28249 37.803688),94607
OK-M5,Washington St at 8th St,37.800755,-122.274895,POINT (-122.274895 37.800755),94607
OK-M6,Franklin St at 9th St,37.800514,-122.27208,POINT (-122.27208 37.800514),94607
OK-N17,Fruitvale BART Station,37.77523,-122.224495,POINT (-122.224495 37.77523),94601
OK-N7,Webster St at 2nd St,37.795197,-122.27397,POINT (-122.27397 37.795197),94607
133,Valencia St at 22nd St,37.75521,-122.420975,POINT (-122.420975 37.75521),94110
SJ-C9,Metro Dr at Technology Dr,37.368023,-121.91871,POINT (-121.91871 37.368023),95110
SJ-D9,Skyport Dr at Technology Dr,37.36538,-121.91651,POINT (-121.91651 37.36538),95110
SJ-E10,Gish Rd at 1st St,37.362194,-121.90874,POINT (-121.90874 37.362194),95112
SJ-E9,Sonora Ave at 1st St,37.36406,-121.911736,POINT (-121.911736 37.36406),95110
SJ-F10,Kerley Dr at Rosemary St,37.36097,-121.90698,POINT (-121.90698 37.36097),95112
SJ-G10,1st St at Younger Ave,37.35505,-121.90447,POINT (-121.90447 37.35505),95112
SJ-G15,Mercado Way at Sierra Rd,37.371197,-121.88121,POINT (-121.88121 37.371197),95133
SJ-H10,Mission St at 1st St,37.350773,-121.902145,POINT (-121.902145 37.350773),95110
SJ-H11,Raymond Bernal Jr Memorial Park (8th St at Hedding St),37.35767,-121.89514,POINT (-121.89514 37.35767),95112
SJ-H17,Newbury Park Dr at King Rd,37.365536,-121.867966,POINT (-121.867966 37.365536),95133
SJ-H9,San Pedro St at Hedding St,37.3526,-121.90573,POINT (-121.90573 37.3526),95110
SJ-I10,5th St at Taylor St,37.350903,-121.89584,POINT (-121.89584 37.350903),95112
SJ-I11,Taylor St at 9th St,37.35306,-121.891945,POINT (-121.891945 37.35306),95112
SJ-I14,23rd St at Taylor St,37.36009,-121.87884,POINT (-121.87884 37.36009),95112
SJ-I5,Asbury St at The Alameda,37.338024,-121.91948,POINT (-121.91948 37.338024),95126
SJ-I9,George St at 1st St,37.34759,-121.899666,POINT (-121.899666 37.34759),95110
SJ-J10,Jackson St at 5th St,37.348763,-121.89474,POINT (-121.89474 37.348763),95112
SJ-J11,7th St at Empire St,37.347713,-121.89056,POINT (-121.89056 37.347713),95112
SJ-J12-1,10th St at Empire St,37.34954,-121.887665,POINT (-121.887665 37.34954),95112
SJ-J12-2,Backesto Park (Jackson St at 13th St),37.35289,-121.88592,POINT (-121.88592 37.35289),95112
SJ-J6,Stockton Ave at Lenzen Ave,37.336773,-121.90915,POINT (-121.90915 37.336773),95126
SJ-J8,Autumn Parkway at Coleman Ave,37.341335,-121.90318,POINT (-121.90318 37.341335),95110
SJ-J9,Empire St at 1st St,37.34498,-121.8969,POINT (-121.8969 37.34498),95112
SJ-K10,2nd St at Julian St,37.34125,-121.893005,POINT (-121.893005 37.34125),95112
SJ-K11,Julian St at 6th St,37.343,-121.888885,POINT (-121.888885 37.343),95112
SJ-K5,Julian St at The Alameda,37.332233,-121.91251,POINT (-121.91251 37.332233),95126
SJ-K6,W Julian St at N Morrison St,37.333782,-121.90874,POINT (-121.90874 37.333782),95126
SJ-K9,Ryland Park,37.34273,-121.89562,POINT (-121.89562 37.34273),95112
SJ-L10,Saint James Park,37.339302,-121.88994,POINT (-121.88994 37.339302),95112
SJ-M10-2,San Fernando St at 4th St,37.335953,-121.88549,POINT (-121.88549 37.335953),95112
SJ-M10-3,Paseo De San Antonio at 2nd St,37.333797,-121.88694,POINT (-121.88694 37.333797),95113
SJ-M10-4,Fountain Alley at S 2nd St,37.33619,-121.889275,POINT (-121.889275 37.33619),95113
SJ-M11-1,Santa Clara St at 7th St,37.339146,-121.8841,POINT (-121.8841 37.339146),95112
SJ-M11-2,San Fernando St at 7th St,37.337124,-121.88322,POINT (-121.88322 37.337124),95112
SJ-M11-3,9th St at San Fernando St,37.3385,-121.88086,POINT (-121.88086 37.3385),95112
SJ-M14,21st St at Santa Clara St,37.345795,-121.87059,POINT (-121.87059 37.345795),95116
SJ-M4,San Carlos St at Meridian Ave,37.32337,-121.91346,POINT (-121.91346 37.32337),95126
SJ-M5,Park Ave at Race St,37.326046,-121.91243,POINT (-121.91243 37.326046),95126
SJ-M6,Cahill Park,37.329132,-121.904755,POINT (-121.904755 37.329132),95126
SJ-M6-2,Park Ave at Laurel Grove Ln,37.326283,-121.90491,POINT (-121.90491 37.326283),95126
SJ-M7-1,San Jose Diridon Station,37.329716,-121.90178,POINT (-121.90178 37.329716),95110
SJ-M8,Almaden Blvd at San Fernando St,37.331413,-121.8932,POINT (-121.8932 37.331413),95113
SJ-M8-2,Delmas Ave and San Fernando St,37.330208,-121.897644,POINT (-121.897644 37.330208),95110
SJ-M9-2,Santa Clara St at Almaden Blvd,37.33399,-121.894905,POINT (-121.894905 37.33399),95113
SJ-N10-1,4th St at San Carlos St,37.332798,-121.88385,POINT (-121.88385 37.332798),95112
SJ-N10-2,1st St at San Carlos St,37.330967,-121.88677,POINT (-121.88677 37.330967),95113
SJ-N10-3,5th St at San Salvador St,37.33204,-121.88177,POINT (-121.88177 37.33204),95112
SJ-N11,San Salvador St at 9th St,37.333958,-121.8774,POINT (-121.8774 37.333958),95112
SJ-N12-1,San Carlos St at 11th St,37.336468,-121.87661,POINT (-121.87661 37.336468),95112
SJ-N14,22nd St at William St,37.34002,-121.86371,POINT (-121.86371 37.34002),95116
SJ-N14-2,19th St at William St,37.338684,-121.86657,POINT (-121.86657 37.338684),95116
SJ-N5,Sunol St at San Carlos St,37.32341,-121.90604,POINT (-121.90604 37.32341),95126
SJ-N5-2,Auzerais Ave at Lincoln Ave,37.32097,-121.908295,POINT (-121.908295 37.32097),95126
SJ-N6,Auzerais Ave at Los Gatos Creek Trail,37.32124,-121.90317,POINT (-121.90317 37.32124),95126
SJ-N7,Columbia Ave at Bird Ave,37.324127,-121.89972,POINT (-121.89972 37.324127),95126
SJ-N9,San Carlos St at Market St,37.33104,-121.88899,POINT (-121.88899 37.33104),95113
SJ-O10,Pierce Ave at Market St,37.327614,-121.88503,POINT (-121.88503 37.327614),95110
SJ-O11,William St at 10th St,37.332794,-121.87592,POINT (-121.87592 37.332794),95112
SJ-O4,Parkmoor Ave at Race St,37.31675,-121.90977,POINT (-121.90977 37.31675),95126
SJ-O9,Almaden Blvd at Balbach St,37.326885,-121.889244,POINT (-121.889244 37.326885),95113
SJ-P10,5th St at Virginia St,37.32588,-121.87706,POINT (-121.87706 37.32588),95112
SJ-P6,Bird Ave at Coe Ave,37.31516,-121.897835,POINT (-121.897835 37.31516),95125
SJ-P7,Delmas Ave at Virginia St,37.319763,-121.892944,POINT (-121.892944 37.319763),95125
SJ-P8,Locust St at Grant St,37.32314,-121.88804,POINT (-121.88804 37.32314),95110
SJ-P9,Oak St at 1st St,37.322193,-121.88104,POINT (-121.88104 37.322193),95110
SJ-Q10,3rd St at Keyes St,37.321014,-121.87637,POINT (-121.87637 37.321014),95112
SJ-Q11,Bestor Art Park,37.323727,-121.874245,POINT (-121.874245 37.323727),95112
SJ-Q4,Willow St at Blewett Ave,37.30906,-121.89996,POINT (-121.89996 37.30906),95125
SJ-Q5,Bird Ave at Willow St,37.311234,-121.8963,POINT (-121.8963 37.311234),95125
SJ-Q8,Palm St at Willow St,37.3173,-121.884995,POINT (-121.884995 37.3173),95110
SJ-Q9,Willow St at Vine St,37.31845,-121.88317,POINT (-121.88317 37.31845),95110
SJ-R11,South San Jose State (7th St at Humboldt St),37.320362,-121.8701,POINT (-121.8701 37.320362),95112
SF-H0,Great Hwy at Balboa St,37.775295,-122.5112,POINT (-122.5112 37.775295),94121
SF-J3,38th Ave at Balboa St,37.77547,-122.49853,POINT (-122.49853 37.77547),94121
SF-W8,Eucalyptus Dr at 20th Ave,37.731087,-122.476166,POINT (-122.476166 37.731087),94132
SF-J1,48th Ave at Cabrillo St,37.772953,-122.50907,POINT (-122.50907 37.772953),94121
84,Duboce Park,37.7692,-122.433815,POINT (-122.433815 37.7692),94114
SF-Z6,Font Blvd at Arballo Dr,37.72209,-122.48286,POINT (-122.48286 37.72209),94132
SF-G5,Clement St at 32nd Ave,37.781727,-122.49286,POINT (-122.49286 37.781727),94121
SF-J5,34th Ave at Balboa St,37.77575,-122.49405,POINT (-122.49405 37.77575),94121
SF-M10,Funston Ave at Irving St,37.764065,-122.47069,POINT (-122.47069 37.764065),94122
SF-G6,28th Ave at Geary Blvd,37.779675,-122.48797,POINT (-122.48797 37.779675),94121
SF-A19,Fillmore St at Jefferson St,37.805374,-122.43726,POINT (-122.43726 37.805374),94123
SF-G7,23rd Ave at Clement St,37.782032,-122.48276,POINT (-122.48276 37.782032),94121
SF-G8,21st Ave at Geary Blvd,37.779957,-122.4805,POINT (-122.4805 37.779957),94121
SF-Z7,Holloway Ave at Arellano Ave,37.72098,-122.47857,POINT (-122.47857 37.72098),94132
SF-F9,18th Ave at California St,37.78511,-122.47767,POINT (-122.47767 37.78511),94121
SF-BB17,London St at Geneva Ave,37.71616,-122.44011,POINT (-122.44011 37.71616),94112
SF-G9,17th Ave at Geary Blvd,37.78079,-122.476105,POINT (-122.476105 37.78079),94118
SF-G10-1,Funston Ave at Clement St,37.782497,-122.47197,POINT (-122.47197 37.782497),94118
SF-O12,7th Ave at Lawton St,37.7587,-122.463776,POINT (-122.463776 37.7587),94122
SF-J10,Funston Ave at Fulton St,37.77359,-122.47136,POINT (-122.47136 37.77359),94118
SF-G10-2,14th Ave at Geary Blvd,37.78038,-122.4728,POINT (-122.4728 37.78038),94118
SF-G12,7th Ave at Clement St,37.785748,-122.45897,POINT (-122.45897 37.785748),94118
SF-G11,9th Ave at Geary Blvd,37.781673,-122.46758,POINT (-122.46758 37.781673),94118
SF-M11,10th Ave at Irving St,37.764236,-122.46739,POINT (-122.46739 37.764236),94122
SF-H12,5th Ave at Anza St,37.779522,-122.46317,POINT (-122.46317 37.779522),94118
SF-J12,7th Ave at Cabrillo St,37.77508,-122.46494,POINT (-122.46494 37.77508),94118
SF-H13,Arguello Blvd at Edward St,37.778564,-122.4587,POINT (-122.4587 37.778564),94118
SF-G13,Arguello Blvd at Geary Blvd,37.78148,-122.45875,POINT (-122.45875 37.78148),94118
SF-M12,7th Ave at Irving St,37.76371,-122.464134,POINT (-122.464134 37.76371),94122
SF-Y14,Frida Kahlo Way at Cloud Cir,37.72601,-122.45247,POINT (-122.45247 37.72601),94112
SF-J13,McAllister St at Arguello Blvd,37.775352,-122.45841,POINT (-122.45841 37.775352),94118
SF-F15,Spruce St at California St,37.786625,-122.4533,POINT (-122.4533 37.786625),94118
SF-J14,Turk Blvd at Stanyan St,37.77762,-122.45465,POINT (-122.45465 37.77762),94118
OK-J6-2,Snow Park,37.80781,-122.264496,POINT (-122.264496 37.80781),94612
SF-H14,Stanyan St at Geary Blvd,37.78095,-122.45631,POINT (-122.45631 37.78095),94118
SF-M13,Frederick St at Arguello Blvd,37.765827,-122.45759,POINT (-122.45759 37.765827),94117
SF-J15,Parker Ave at McAllister St,37.77635,-122.45315,POINT (-122.45315 37.77635),94118
SF-K15-,Fell St at Stanyan St,37.771973,-122.45366,POINT (-122.45366 37.771973),94117
SF-M15,Carl St at Cole St,37.76601,-122.44932,POINT (-122.44932 37.76601),94117
SF-H15,Anza St at Collins St,37.780712,-122.450386,POINT (-122.450386 37.780712),94118
SF-F16,Laurel St at California St,37.78666,-122.450035,POINT (-122.450035 37.78666),94118
SF-X14,Judson Ave at Gennessee St,37.728325,-122.450356,POINT (-122.450356 37.728325),94112
SF-AA15,Balboa Park BART Station,37.720604,-122.44764,POINT (-122.44764 37.720604),94112
SF-O18,Eureka Valley Recreation Center,37.759228,-122.43681,POINT (-122.43681 37.759228),94114
SF-J16,Grove St at Masonic Ave,37.77493,-122.44626,POINT (-122.44626 37.77493),94117
SF-I16,Masonic Ave at Turk St,37.779194,-122.44735,POINT (-122.44735 37.779194),94118
SF-H16,O'Farrell St at Masonic Ave,37.78114,-122.44724,POINT (-122.44724 37.78114),94118
SF-Z16,Delano Ave at Oneida Ave,37.722576,-122.44372,POINT (-122.44372 37.722576),94112
SF-G17,Post St at Baker St,37.78398,-122.44285,POINT (-122.44285 37.78398),94115
SF-J17,McAllister St at Baker St,37.777412,-122.441895,POINT (-122.441895 37.777412),94115
SF-K17,Central Ave at Fell St,37.773483,-122.4442,POINT (-122.4442 37.773483),94117
SF-H17,St. Joseph's Ave at Geary Blvd,37.78248,-122.442444,POINT (-122.442444 37.78248),94115
SF-K18,Broderick St at Oak St,37.773243,-122.43911,POINT (-122.43911 37.773243),94117
SF-K17-2,Haight St at Lyon St,37.770622,-122.442245,POINT (-122.442245 37.770622),94117
SF-E18,Divisadero St at Clay St,37.78962,-122.44062,POINT (-122.44062 37.78962),94115
SF-G18,Post St at Divisadero St,37.784386,-122.439316,POINT (-122.439316 37.784386),94115
SF-H18,O'Farrell St at Divisadero St,37.78245,-122.43958,POINT (-122.43958 37.78245),94115
SF-R19,Jersey St at Castro St,37.75054,-122.43357,POINT (-122.43357 37.75054),94114
SF-B19,Bay St at Fillmore St,37.802666,-122.43595,POINT (-122.43595 37.802666),94123
SF-J18,Grove St at Divisadero,37.77596,-122.43778,POINT (-122.43778 37.77596),94117
SF-H19,Ellis St at Pierce St,37.782,-122.435585,POINT (-122.435585 37.782),94115
SF-K19,Page St at Scott St,37.77249,-122.43598,POINT (-122.43598 37.77249),94117
SF-I19,Scott St at Golden Gate Ave,37.779274,-122.43696,POINT (-122.43696 37.779274),94115
SF-A20,Buchanan St at North Point St,37.80445,-122.43351,POINT (-122.43351 37.80445),94123
SF-F19,Steiner St at California St,37.78857,-122.4354,POINT (-122.4354 37.78857),94115
SF-L19,Duboce Park,37.769222,-122.4341,POINT (-122.4341 37.769222),94114
SF-J19,Alamo Square (Steiner St at Fulton St),37.777676,-122.43333,POINT (-122.43333 37.777676),94117
SF-E20,Webster St at Clay St,37.790466,-122.43248,POINT (-122.43248 37.790466),94115
SF-C20,Greenwich St at Webster St,37.79919,-122.433815,POINT (-122.433815 37.79919),94123
SF-G19,Raymond Kimbell Playground,37.783623,-122.43456,POINT (-122.43456 37.783623),94115
SF-X19,Alemany Blvd at Silver Ave,37.730175,-122.4329,POINT (-122.4329 37.730175),94112
SF-O19,18th St at Noe St,37.76108,-122.432335,POINT (-122.432335 37.76108),94114
SF-K20,Pierce St at Haight St,37.771923,-122.43375,POINT (-122.43375 37.771923),94117
SF-I20,Turk St at Fillmore St,37.780556,-122.431725,POINT (-122.431725 37.780556),94115
SF-G20,Post St at Webster St,37.78538,-122.431656,POINT (-122.431656 37.78538),94115
SF-M20,Sanchez St at 15th St,37.7663,-122.43109,POINT (-122.43109 37.7663),94114
SF-N20-1,16th St at Prosper St,37.76435,-122.431984,POINT (-122.431984 37.76435),94114
SF-B25,Lombard St at Columbus Ave,37.80285,-122.413246,POINT (-122.413246 37.80285),94133
SF-B21,Greenwich St at Franklin St,37.800278,-122.42572,POINT (-122.42572 37.800278),94123
SF-U21,Randall St at Chenery St,37.739887,-122.4253,POINT (-122.4253 37.739887),94131
SF-Y25,Goettingen St at Bacon St,37.727303,-122.406715,POINT (-122.406715 37.727303),94134
SF-C21,Allyne Park (Green St at Gough St),37.79725,-122.42742,POINT (-122.42742 37.79725),94123
SF-E23,Jackson St at Polk St,37.794174,-122.42168,POINT (-122.42168 37.794174),94109
SF-N20-2,Sanchez St at 17th St,37.76325,-122.43064,POINT (-122.43064 37.76325),94114
SF-J20,Webster St at Grove St,37.777054,-122.42956,POINT (-122.42956 37.777054),94102
SF-Q21-1,22nd St at Dolores St,37.754993,-122.425835,POINT (-122.425835 37.754993),94114
SF-H20,Webster St at O'Farrell St,37.783363,-122.43109,POINT (-122.43109 37.783363),94115
SF-L20,Church St at Duboce Ave,37.769825,-122.42913,POINT (-122.42913 37.769825),94114
SF-I22,Golden Gate Ave at Franklin St,37.78082,-122.42179,POINT (-122.42179 37.78082),94102
SF-I21,Fulton St at Laguna St,37.778328,-122.426414,POINT (-122.426414 37.778328),94102
SF-T20,29th St at Church St,37.743713,-122.426834,POINT (-122.426834 37.743713),94131
SF-T21,30th St at San Jose Ave,37.74242,-122.42287,POINT (-122.42287 37.74242),94110
SF-R20,Jersey St at Church St,37.750904,-122.4276,POINT (-122.4276 37.750904),94114
SF-K21,Koshland Park,37.773476,-122.42729,POINT (-122.42729 37.773476),94102
SF-M21,Dolores St at 15th St,37.766193,-122.42667,POINT (-122.42667 37.766193),94114
SF-O21,Mission Dolores Park,37.761494,-122.42671,POINT (-122.42671 37.761494),94114
SF-N21,17th St at Dolores St,37.763023,-122.42667,POINT (-122.42667 37.763023),94114
SF-L21,Market St at Dolores St,37.76942,-122.42681,POINT (-122.42681 37.76942),94114
SF-Q21-2,24th St at Chattanooga St,37.75182,-122.42661,POINT (-122.42661 37.75182),94114
SF-S21,Cesar Chavez St at Dolores St,37.74786,-122.42499,POINT (-122.42499 37.74786),94131
SF-J21,Laguna St at Hayes St,37.776264,-122.42625,POINT (-122.42625 37.776264),94102
SF-P21,20th St at Dolores St,37.75826,-122.42621,POINT (-122.42621 37.75826),94114
SF-J22-1,Octavia Blvd at Page St,37.774033,-122.423805,POINT (-122.423805 37.774033),94102
SF-L22,Valencia St at Clinton Park,37.769188,-122.42229,POINT (-122.42229 37.769188),94103
SF-C22,Green St at Van Ness Ave,37.797707,-122.42336,POINT (-122.42336 37.797707),94109
SF-N22-2,17th St at Valencia St,37.763332,-122.42196,POINT (-122.42196 37.763332),94110
SF-M22-2,Valencia St at 16th St,37.7657,-122.421974,POINT (-122.421974 37.7657),94103
SF-Q22-1,Valencia St at 22nd St,37.75521,-122.420975,POINT (-122.420975 37.75521),94110
SF-B22,Chestnut St at Van Ness Ave,37.802357,-122.42449,POINT (-122.42449 37.802357),94109
SF-S24,Precita Park,37.74733,-122.41139,POINT (-122.41139 37.74733),94110
SF-J22-2,Grove St at Gough St,37.77787,-122.42295,POINT (-122.42295 37.77787),94102
SF-A27,The Embarcadero at Sansome St,37.80486,-122.40334,POINT (-122.40334 37.80486),94111
SF-D24,Leavenworth St at Broadway,37.79642,-122.41687,POINT (-122.41687 37.79642),94109
SF-S22-2,Guerrero Park,37.745827,-122.42217,POINT (-122.42217 37.745827),94110
SF-K22-1,Market St at Franklin St,37.77398,-122.42087,POINT (-122.42087 37.77398),94117
SF-F23,Fern St at Polk St,37.788254,-122.42055,POINT (-122.42055 37.788254),94109
SF-T22,29th St at Tiffany Ave,37.74407,-122.42156,POINT (-122.42156 37.74407),94110
SF-K22-2,McCoppin St at Valencia St,37.771683,-122.42204,POINT (-122.42204 37.771683),94103
SF-Q22-2,Valencia St at 24th St,37.75259,-122.4206,POINT (-122.4206 37.75259),94110
SF-P22,Valencia St at 21st St,37.756767,-122.42113,POINT (-122.42113 37.756767),94110
SF-O22,Mission Playground,37.75921,-122.42134,POINT (-122.42134 37.75921),94110
SF-M22-1,14th St at Mission St,37.768234,-122.42017,POINT (-122.42017 37.768234),94103
SF-N22-1B,16th St Mission BART Station 2,37.76488,-122.42012,POINT (-122.42012 37.76488),94110
SF-J23-2,S Van Ness Ave at Market St,37.774815,-122.41895,POINT (-122.41895 37.774815),94103
SF-N22-1A,16th St Mission BART,37.764683,-122.41993,POINT (-122.41993 37.764683),94110
SF-S22-1,Valencia St at Cesar Chavez St,37.747753,-122.42018,POINT (-122.42018 37.747753),94110
SF-O23,19th St at Mission St,37.760292,-122.41889,POINT (-122.41889 37.760292),94110
SF-K23,Otis St at Brady St,37.772305,-122.41979,POINT (-122.41979 37.772305),94103
SF-I23-2,San Francisco City Hall (Polk St at Grove St),37.77865,-122.41823,POINT (-122.41823 37.77865),94102
SF-P24,Harrison St at 20th St,37.75886,-122.412544,POINT (-122.412544 37.75886),94110
SF-O24,Folsom St at 19th St,37.76075,-122.41483,POINT (-122.41483 37.76075),94110
SF-Q23-3,24th St at Bartlett St,37.752106,-122.41972,POINT (-122.41972 37.752106),94110
SF-G23,Myrtle St at Polk St,37.78548,-122.41934,POINT (-122.41934 37.78548),94109
SF-K24,11th St at Natoma St,37.773506,-122.41604,POINT (-122.41604 37.773506),94103
SF-N23,17th & Folsom Street Park (17th St at Folsom St),37.76371,-122.41521,POINT (-122.41521 37.76371),94110
SF-I23-1,Golden Gate Ave at Polk St,37.781315,-122.41837,POINT (-122.41837 37.781315),94102
SF-L24,Folsom St at 13th St,37.77015,-122.415276,POINT (-122.415276 37.77015),94103
SF-I24,San Francisco Public Library (Grove St at Hyde St),37.778767,-122.41593,POINT (-122.41593 37.778767),94102
SF-J23-1,Market St at 10th St,37.77662,-122.41738,POINT (-122.41738 37.77662),94102
SF-M24,Folsom St at 15th St,37.767254,-122.41542,POINT (-122.41542 37.767254),94103
SF-H25,Father Alfred E Boeddeker Park,37.78399,-122.41241,POINT (-122.41241 37.78399),94102
SF-G25,Jones St at Post St,37.787327,-122.41328,POINT (-122.41328 37.787327),94102
SF-J25,Howard St at 8th St,37.77675,-122.41152,POINT (-122.41152 37.77675),94103
SF-N24-2,Harrison St at 17th St,37.763847,-122.413,POINT (-122.413 37.763847),94110
SF-L25,11th St at Bryant St,37.77003,-122.41173,POINT (-122.41173 37.77003),94103
SF-I25,Civic Center/UN Plaza BART Station (Market St at McAllister St),37.781075,-122.411736,POINT (-122.411736 37.781075),94103
SF-R24,Garfield Square (25th St at Harrison St),37.750973,-122.41201,POINT (-122.41201 37.750973),94110
SF-K25,Folsom St at 9th St,37.773716,-122.411644,POINT (-122.411644 37.773716),94103
SF-C25,Powell St at Columbus Ave,37.800537,-122.41094,POINT (-122.41094 37.800537),94133
SF-G26,Cyril Magnin St at Ellis St,37.785683,-122.408356,POINT (-122.408356 37.785683),94102
SF-M25,Bryant St at 15th St,37.7671,-122.41066,POINT (-122.41066 37.7671),94103
SF-O25-1,19th St at Florida St,37.76045,-122.410805,POINT (-122.410805 37.76045),94110
SF-F26,Union Square (Powell St at Post St),37.78843,-122.40852,POINT (-122.40852 37.78843),94108
SF-J26-2,Folsom St at 7th St,37.776573,-122.40816,POINT (-122.40816 37.776573),94103
SF-O25-2,20th St at Bryant St,37.759163,-122.41005,POINT (-122.41005 37.759163),94110
SF-J24,8th St at Ringold St,37.77457,-122.40953,POINT (-122.40953 37.77457),94103
SF-Q26,Utah St at 24th St,37.753304,-122.40547,POINT (-122.40547 37.753304),94110
SF-G27,Powell St BART Station (Market St at 4th St),37.786377,-122.40491,POINT (-122.40491 37.786377),94102
SF-L26,Division St at Potrero Ave,37.769268,-122.407196,POINT (-122.407196 37.769268),94103
SF-N25,Franklin Square,37.76454,-122.41035,POINT (-122.41035 37.76454),94110
SF-N26,Potrero Ave and Mariposa St,37.763523,-122.40751,POINT (-122.40751 37.763523),94110
SF-P26,22nd St at Potrero Ave,37.75685,-122.406075,POINT (-122.406075 37.75685),94110
SF-H26,Powell St BART Station (Market St at 5th St),37.7839,-122.40845,POINT (-122.40845 37.7839),94102
SF-M26,15th St at Potrero Ave,37.76715,-122.40753,POINT (-122.40753 37.76715),94103
SF-C26,Broadway at Kearny St,37.79801,-122.40595,POINT (-122.40595 37.79801),94133
SF-H26-2,Mint St at Mission St,37.782307,-122.40758,POINT (-122.40758 37.782307),94103
SF-K26,8th St at Brannan St,37.77143,-122.405785,POINT (-122.405785 37.77143),94103
SF-I26-,Howard St at 6th St,37.780468,-122.406364,POINT (-122.406364 37.780468),94103
SF-M26-2,Alameda St at Henry Adams St,37.76858,-122.40391,POINT (-122.40391 37.76858),94103
SF-AA28,Egbert Ave at Jennings St,37.72268,-122.39245,POINT (-122.39245 37.72268),94124
SF-J27,Bryant St at 6th St,37.77592,-122.402794,POINT (-122.402794 37.77592),94103
SF-J26,Victoria Manalo Draves Park,37.77774,-122.40628,POINT (-122.40628 37.77774),94103
SF-K27,7th St at Brannan St,37.77349,-122.40367,POINT (-122.40367 37.77349),94103
SF-N27,Rhode Island St at 17th St,37.764477,-122.40246,POINT (-122.40246 37.764477),94107
SF-R26,Potrero del Sol Park (25th St at Utah St),37.751793,-122.40521,POINT (-122.40521 37.751793),94110
SF-D27,Washington St at Kearny St,37.795403,-122.404686,POINT (-122.404686 37.795403),94108
SF-C28-2,Broadway at Battery St,37.798645,-122.40085,POINT (-122.40085 37.798645),94111
SF-I27,Folsom St at 5th St,37.780857,-122.40253,POINT (-122.40253 37.780857),94107
SF-L27,Townsend St at 7th St,37.771057,-122.40272,POINT (-122.40272 37.771057),94103
SF-Y27,Williams Ave at Apollo St,37.730087,-122.39895,POINT (-122.39895 37.730087),94124
SF-E27,Commercial St at Montgomery St,37.794945,-122.40336,POINT (-122.40336 37.794945),94111
SF-F27,Post St at Kearny St,37.788975,-122.40345,POINT (-122.40345 37.788975),94104
SF-K27-2,Brannan St at 7th St,37.772713,-122.40358,POINT (-122.40358 37.772713),94103
SF-N28,Jackson Playground,37.765026,-122.39877,POINT (-122.39877 37.765026),94107
SF-B28-2,Battery St at Filbert St,37.802197,-122.40177,POINT (-122.40177 37.802197),94111
SF-K28-3,Townsend St at 6th St,37.77324,-122.4,POINT (-122.4 37.77324),94103
SF-H27-1,Yerba Buena Center for the Arts (Howard St at 3rd St),37.78488,-122.400795,POINT (-122.400795 37.78488),94103
SF-L27-2,7th St at King St,37.77123,-122.40089,POINT (-122.40089 37.77123),94107
SF-F28-2,Montgomery St BART Station (Market St at 2nd St),37.789627,-122.40081,POINT (-122.40081 37.789627),94104
SF-M27,Irwin St at 8th St,37.76689,-122.39953,POINT (-122.39953 37.76689),94107
SF-P30,22nd St Caltrain Station,37.75774,-122.391846,POINT (-122.391846 37.75774),94107
SF-B28,Cruise Terminal at Pier 27,37.80465,-122.402084,POINT (-122.402084 37.80465),94111
SF-D29,Pier 1/2 at The Embarcadero,37.79639,-122.394585,POINT (-122.394585 37.79639),94105
SF-C28-1,The Embarcadero at Vallejo St,37.799953,-122.39852,POINT (-122.39852 37.799953),94111
SF-I28,Clara St at 4th St,37.780956,-122.40058,POINT (-122.40058 37.780956),94107
SF-F28-1,Mechanics Monument Plaza (Market St at Bush St),37.791935,-122.39951,POINT (-122.39951 37.791935),94111
SF-E28,Clay St at Battery St,37.795155,-122.40026,POINT (-122.40026 37.795155),94111
SF-G28-2,Natoma St at New Montgomery St,37.78654,-122.3998,POINT (-122.3998 37.78654),94105
SF-H28,Folsom St at 3rd St,37.78447,-122.3988,POINT (-122.3988 37.78447),94107
134,Valencia St at 24th St,37.752426,-122.42063,POINT (-122.42063 37.752426),94110
136,23rd St at San Bruno Ave,37.754436,-122.404366,POINT (-122.404366 37.754436),94110
137,Jersey St at Castro St,37.750507,-122.43395,POINT (-122.43395 37.750507),94114
138,Jersey St at Church St,37.7509,-122.427414,POINT (-122.427414 37.7509),94114
139,Garfield Square (25th St at Harrison St),37.75102,-122.4119,POINT (-122.4119 37.75102),94110
14,Clay St at Battery St,37.795002,-122.39997,POINT (-122.39997 37.795002),94111
140,Cesar Chavez St at Dolores St,37.74786,-122.42499,POINT (-122.42499 37.74786),94131
SF-E28-2,Front St at California St,37.79318,-122.39883,POINT (-122.39883 37.79318),94111
SF-K28,Townsend St at 5th St,37.775307,-122.397484,POINT (-122.397484 37.775307),94107
SF-G29-1,Salesforce Transit Center (Natoma St at 2nd St),37.788017,-122.39649,POINT (-122.39649 37.788017),94105
SF-M28,Hubbell St at 16th St,37.766735,-122.39811,POINT (-122.39811 37.766735),94107
SF-V28,Oakdale Ave at Phelps St,37.737045,-122.39452,POINT (-122.39452 37.737045),94124
SF-Z28,Carroll Ave at 3rd St,37.725388,-122.39394,POINT (-122.39394 37.725388),94124
SF-D28,Davis St at Jackson St,37.79728,-122.39844,POINT (-122.39844 37.79728),94111
SF-H29,Folsom St at 2nd St,37.785378,-122.396904,POINT (-122.396904 37.785378),94105
SF-E29-3,Embarcadero BART Station (Beale St at Market St),37.79225,-122.39709,POINT (-122.39709 37.79225),94105
SF-N29,Mississippi St at 17th St,37.764793,-122.39476,POINT (-122.39476 37.764793),94107
SF-L28,Berry St at King St,37.772568,-122.39769,POINT (-122.39769 37.772568),94158
SF-E29-2,Market St at Steuart St,37.794594,-122.39488,POINT (-122.39488 37.794594),94105
SF-J29-3,San Francisco Caltrain Station (King St at 4th St),37.77631,-122.39449,POINT (-122.39449 37.77631),94107
10,Washington St at Kearny St,37.79539,-122.40477,POINT (-122.40477 37.79539),94108
100,Bryant St at 15th St,37.7671,-122.41066,POINT (-122.41066 37.7671),94103
101,15th St at Potrero Ave,37.76708,-122.40736,POINT (-122.40736 37.76708),94103
102,Irwin St at 8th St,37.766884,-122.39958,POINT (-122.39958 37.766884),94107
104,4th St at 16th St,37.767044,-122.39083,POINT (-122.39083 37.767044),94158
105,16th St at Prosper St,37.764286,-122.4318,POINT (-122.4318 37.764286),94114
106,Sanchez St at 17th St,37.76324,-122.43067,POINT (-122.43067 37.76324),94114
107,17th St at Dolores St,37.763016,-122.4265,POINT (-122.4265 37.763016),94114
108,16th St Mission BART,37.76471,-122.41996,POINT (-122.41996 37.76471),94110
109,17th St at Valencia St,37.763317,-122.421906,POINT (-122.421906 37.763317),94110
11,Davis St at Jackson St,37.79728,-122.39844,POINT (-122.39844 37.79728),94111
110,17th & Folsom Street Park (17th St at Folsom St),37.76371,-122.41521,POINT (-122.41521 37.76371),94110
112,Harrison St at 17th St,37.763847,-122.413,POINT (-122.413 37.763847),94110
113,Franklin Square,37.764557,-122.41035,POINT (-122.41035 37.764557),94110
114,Rhode Island St at 17th St,37.764477,-122.40257,POINT (-122.40257 37.764477),94107
115,Jackson Playground,37.765026,-122.39877,POINT (-122.39877 37.765026),94107
116,Mississippi St at 17th St,37.7648,-122.39477,POINT (-122.39477 37.7648),94107
118,Eureka Valley Recreation Center,37.75918,-122.43694,POINT (-122.43694 37.75918),94114
119,18th St at Noe St,37.761047,-122.43264,POINT (-122.43264 37.761047),94114
12,Pier 1/2 at The Embarcadero,37.79639,-122.394585,POINT (-122.394585 37.79639),94105
120,Mission Dolores Park,37.76142,-122.42644,POINT (-122.42644 37.76142),94114
121,Mission Playground,37.75921,-122.42134,POINT (-122.42134 37.75921),94110
122,19th St at Mission St,37.7603,-122.41889,POINT (-122.41889 37.7603),94110
123,Folsom St at 19th St,37.760593,-122.41482,POINT (-122.41482 37.760593),94110
124,19th St at Florida St,37.76045,-122.410805,POINT (-122.410805 37.76045),94110
125,20th St at Bryant St,37.7592,-122.40985,POINT (-122.40985 37.7592),94110
127,Valencia St at 21st St,37.75671,-122.42103,POINT (-122.42103 37.75671),94110
129,Harrison St at 20th St,37.75886,-122.412544,POINT (-122.412544 37.75886),94110
13,Commercial St at Montgomery St,37.79423,-122.40292,POINT (-122.40292 37.79423),94111
130,22nd St Caltrain Station,37.757706,-122.391884,POINT (-122.391884 37.757706),94107
131,22nd St at Dolores St,37.755,-122.42573,POINT (-122.42573 37.755),94114
141,Valencia St at Cesar Chavez St,37.747997,-122.42022,POINT (-122.42022 37.747997),94110
142,Guerrero Park,37.74574,-122.42214,POINT (-122.42214 37.74574),94110
144,Precita Park,37.7473,-122.4114,POINT (-122.4114 37.7473),94110
145,29th St at Church St,37.743683,-122.4268,POINT (-122.4268 37.743683),94131
146,30th St at San Jose Ave,37.742313,-122.42318,POINT (-122.42318 37.742313),94110
147,29th St at Tiffany Ave,37.74407,-122.42147,POINT (-122.42147 37.74407),94110
148,Horton St at 40th St,37.829704,-122.28761,POINT (-122.28761 37.829704),94608
149,Emeryville Town Hall,37.831276,-122.28564,POINT (-122.28564 37.831276),94608
15,San Francisco Ferry Building (Harry Bridges Plaza),37.79539,-122.3942,POINT (-122.3942 37.79539),94105
150,Adeline St at 40th St,37.831276,-122.27827,POINT (-122.27827 37.831276),94608
151,53rd St at Hollis St,37.83618,-122.28718,POINT (-122.28718 37.83618),94608
152,47th St at San Pablo Ave,37.835632,-122.28105,POINT (-122.28105 37.835632),94608
153,59th St at Horton St,37.840946,-122.29136,POINT (-122.29136 37.840946),94608
154,Doyle St at 59th St,37.841923,-122.28805,POINT (-122.28805 37.841923),94608
155,Emeryville Public Market,37.840523,-122.293526,POINT (-122.293526 37.840523),94608
156,Stanford Ave at Hollis St,37.838444,-122.288666,POINT (-122.288666 37.838444),94608
157,65th St at Hollis St,37.846783,-122.291374,POINT (-122.291374 37.846783),94608
158,Shattuck Ave at Telegraph Ave,37.83328,-122.26349,POINT (-122.26349 37.83328),94609
159,24th St at Market St,37.81606,-122.278244,POINT (-122.278244 37.81606),94607
16,Steuart St at Market St,37.79413,-122.39443,POINT (-122.39443 37.79413),94105
160,West Oakland BART Station,37.805317,-122.29484,POINT (-122.29484 37.805317),94607
162,Franklin St at 9th St,37.800514,-122.27208,POINT (-122.27208 37.800514),94607
163,Lake Merritt BART Station,37.79732,-122.26532,POINT (-122.26532 37.79732),94607
164,Isabella St at San Pablo Ave,37.814987,-122.27484,POINT (-122.27484 37.814987),94612
166,College Ave at Alcatraz Ave,37.851376,-122.252525,POINT (-122.252525 37.851376),94705
167,College Ave at Harwood Ave,37.848152,-122.25216,POINT (-122.25216 37.848152),94618
168,Alcatraz Ave at Shattuck Ave,37.849594,-122.26557,POINT (-122.26557 37.849594),94609
169,Bushrod Park,37.846516,-122.265305,POINT (-122.265305 37.846516),94609
17,Embarcadero BART Station (Beale St at Market St),37.79225,-122.39709,POINT (-122.39709 37.79225),94105
170,Telegraph Ave at 58th St,37.844494,-122.26135,POINT (-122.26135 37.844494),94609
171,Rockridge BART Station,37.84428,-122.2519,POINT (-122.2519 37.84428),94618
172,College Ave at Taft Ave,37.8418,-122.25153,POINT (-122.25153 37.8418),94618
173,Shattuck Ave at 55th St,37.840363,-122.26449,POINT (-122.26449 37.840363),94609
174,Shattuck Ave at 51st St,37.8368,-122.264,POINT (-122.264 37.8368),94609
175,49th St at Telegraph Ave,37.835945,-122.26237,POINT (-122.26237 37.835945),94609
176,MacArthur BART Station,37.82841,-122.26631,POINT (-122.26631 37.82841),94609
177,MacArthur Blvd at Telegraph Ave,37.826286,-122.2651,POINT (-122.2651 37.826286),94609
178,Broadway at 30th St,37.81938,-122.261925,POINT (-122.261925 37.81938),94611
179,Telegraph Ave at 27th St,37.816074,-122.26788,POINT (-122.26788 37.816074),94612
18,Telegraph Ave at Alcatraz Ave,37.850224,-122.26017,POINT (-122.26017 37.850224),94609
180,Telegraph Ave at 23rd St,37.81268,-122.268776,POINT (-122.268776 37.81268),94612
181,Grand Ave at Webster St,37.81138,-122.26519,POINT (-122.26519 37.81138),94612
182,19th Street BART Station,37.80937,-122.26795,POINT (-122.26795 37.80937),94612
183,Telegraph Ave at 19th St,37.8087,-122.26993,POINT (-122.26993 37.8087),94612
184,Franklin St at 14th St,37.803764,-122.26999,POINT (-122.26999 37.803764),94612
185,Jackson St at 14th St,37.801857,-122.265366,POINT (-122.265366 37.801857),94612
186,Lakeside Dr at 14th St,37.80132,-122.26264,POINT (-122.26264 37.80132),94612
187,Jack London Square,37.79625,-122.27935,POINT (-122.27935 37.79625),94607
188,Dover St at 57th St,37.84263,-122.26774,POINT (-122.26774 37.84263),94609
189,Genoa St at 55th St,37.83965,-122.27176,POINT (-122.27176 37.83965),94608
19,Post St at Kearny St,37.788975,-122.40345,POINT (-122.40345 37.788975),94104
190,West St at 40th St,37.830223,-122.27095,POINT (-122.27095 37.830223),94609
191,Market St at 40th St,37.830544,-122.27393,POINT (-122.27393 37.830544),94608
192,37th St at West St,37.826694,-122.2718,POINT (-122.2718 37.826694),94609
193,Grand Ave at Santa Clara Ave,37.812744,-122.247215,POINT (-122.247215 37.812744),94610
194,Lakeshore Ave at Trestle Glen Rd,37.81108,-122.24327,POINT (-122.24327 37.81108),94610
195,Bay Pl at Vernon St,37.812313,-122.26078,POINT (-122.26078 37.812313),94610
196,Grand Ave at Perkins St,37.808895,-122.25646,POINT (-122.25646 37.808895),94610
197,El Embarcadero at Grand Ave,37.80885,-122.24968,POINT (-122.24968 37.80885),94610
198,Snow Park,37.80781,-122.264496,POINT (-122.264496 37.80781),94612
199,Webster St at 17th St,37.80583,-122.26731,POINT (-122.26731 37.80583),94612
20,Mechanics Monument Plaza (Market St at Bush St),37.7913,-122.39905,POINT (-122.39905 37.7913),94104
200,2nd Ave at E 18th St,37.800213,-122.25381,POINT (-122.25381 37.800213),94606
201,10th St at Fallon St,37.797672,-122.263,POINT (-122.263 37.797672),94607
202,Washington St at 8th St,37.800755,-122.274895,POINT (-122.274895 37.800755),94607
203,Webster St at 2nd St,37.795197,-122.27397,POINT (-122.27397 37.795197),94607
204,55th St at Telegraph Ave,37.840187,-122.261826,POINT (-122.261826 37.840187),94609
205,Miles Ave at Cavour St,37.8388,-122.258736,POINT (-122.258736 37.8388),94618
206,College Ave at Bryant Ave,37.838127,-122.251274,POINT (-122.251274 37.838127),94618
207,Broadway at Coronado Ave,37.83579,-122.25162,POINT (-122.25162 37.83579),94618
208,4th St at San Carlos St,37.332798,-121.88385,POINT (-121.88385 37.332798),95112
209,45th St at MLK Jr Way,37.833557,-122.26742,POINT (-122.26742 37.833557),94609
21,Montgomery St BART Station (Market St at 2nd St),37.789627,-122.40081,POINT (-122.40081 37.789627),94104
210,45th St at Manila,37.833294,-122.256226,POINT (-122.256226 37.833294),94609
211,Broadway at 40th St,37.82776,-122.256714,POINT (-122.256714 37.82776),94609
212,Mosswood Park,37.824932,-122.260475,POINT (-122.260475 37.824932),94609
213,32nd St at Adeline St,37.82385,-122.28119,POINT (-122.28119 37.82385),94608
214,Market St at Brockhurst St,37.823322,-122.275734,POINT (-122.275734 37.823322),94608
215,34th St at Telegraph Ave,37.822548,-122.26632,POINT (-122.26632 37.822548),94609
216,San Pablo Ave at 27th St,37.817825,-122.275696,POINT (-122.275696 37.817825),94612
217,27th St at MLK Jr Way,37.817017,-122.27176,POINT (-122.27176 37.817017),94612
218,DeFremery Park,37.812332,-122.28517,POINT (-122.28517 37.812332),94607
219,Marston Campbell Park,37.809822,-122.28019,POINT (-122.28019 37.809822),94607
22,Howard St at Beale St,37.789757,-122.394646,POINT (-122.394646 37.789757),94105
220,San Pablo Ave at MLK Jr Way,37.81135,-122.27342,POINT (-122.27342 37.81135),94612
221,6th Ave at E 12th St (Temporary Location),37.794395,-122.253845,POINT (-122.253845 37.794395),94606
222,10th Ave at E 15th St,37.792713,-122.24878,POINT (-122.24878 37.792713),94606
223,16th St Mission BART Station 2,37.764767,-122.42009,POINT (-122.42009 37.764767),94110
224,21st Ave at International Blvd,37.784855,-122.2393,POINT (-122.2393 37.784855),94606
225,23rd Ave at Foothill Blvd,37.78519,-122.23438,POINT (-122.23438 37.78519),94601
226,26th Ave at International Blvd,37.781124,-122.232994,POINT (-122.232994 37.781124),94601
227,Foothill Blvd at Fruitvale Ave,37.783756,-122.2226,POINT (-122.2226 37.783756),94601
228,Foothill Blvd at Harrington Ave,37.77993,-122.21773,POINT (-122.21773 37.77993),94601
229,Foothill Blvd at 42nd Ave,37.775745,-122.213036,POINT (-122.213036 37.775745),94601
23,The Embarcadero at Steuart St,37.791466,-122.39104,POINT (-122.39104 37.791466),94105
230,14th St at Mandela Pkwy,37.81074,-122.29141,POINT (-122.29141 37.81074),94607
231,14th St at Filbert St,37.80875,-122.28328,POINT (-122.28328 37.80875),94607
232,MLK Jr Way at 14th St,37.806164,-122.27604,POINT (-122.27604 37.806164),94612
233,4th Ave at E 12th St (Temporary Location),37.795914,-122.25555,POINT (-122.25555 37.795914),94606
234,Fruitvale Ave at International Blvd,37.778057,-122.2254,POINT (-122.2254 37.778057),94601
235,Union St at 10th St,37.80724,-122.28937,POINT (-122.28937 37.80724),94607
236,Market St at 8th St,37.803688,-122.28249,POINT (-122.28249 37.803688),94607
237,Fruitvale BART Station,37.77523,-122.224495,POINT (-122.224495 37.77523),94601
238,MLK Jr Way at University Ave,37.87172,-122.27307,POINT (-122.27307 37.87172),94704
239,Bancroft Way at Telegraph Ave,37.868813,-122.258766,POINT (-122.258766 37.868813),94704
24,Spear St at Folsom St,37.789677,-122.39043,POINT (-122.39043 37.789677),94105
240,Haste St at Telegraph Ave,37.866043,-122.258804,POINT (-122.258804 37.866043),94704
241,Ashby BART Station,37.852478,-122.27021,POINT (-122.27021 37.852478),94703
242,Milvia St at Derby St,37.860126,-122.26939,POINT (-122.26939 37.860126),94704
243,Bancroft Way at College Ave,37.86936,-122.25434,POINT (-122.25434 37.86936),94720
244,Shattuck Ave at Hearst Ave,37.873676,-122.268486,POINT (-122.268486 37.873676),94704
245,Downtown Berkeley BART,37.870346,-122.26776,POINT (-122.26776 37.870346),94704
246,Berkeley Civic Center,37.86906,-122.27055,POINT (-122.27055 37.86906),94704
247,Fulton St at Bancroft Way,37.86779,-122.2659,POINT (-122.2659 37.86779),94704
248,Telegraph Ave at Ashby Ave,37.855957,-122.259796,POINT (-122.259796 37.855957),94705
249,Russell St at College Ave,37.858475,-122.25325,POINT (-122.25325 37.858475),94705
25,Howard St at 2nd St,37.78752,-122.39741,POINT (-122.39741 37.78752),94105
250,North Berkeley BART Station,37.873558,-122.2831,POINT (-122.2831 37.873558),94702
251,California St at University Ave,37.870556,-122.279724,POINT (-122.279724 37.870556),94703
252,Channing Way at Shattuck Ave,37.865845,-122.26744,POINT (-122.26744 37.865845),94704
253,Haste St at College Ave,37.866417,-122.2538,POINT (-122.2538 37.866417),94704
254,Vine St at Shattuck Ave,37.880222,-122.26959,POINT (-122.26959 37.880222),94709
255,Virginia St at Shattuck Ave,37.87657,-122.26953,POINT (-122.26953 37.87657),94709
256,Hearst Ave at Euclid Ave,37.87511,-122.26055,POINT (-122.26055 37.87511),94709
257,Fifth St at Delaware St,37.870407,-122.299675,POINT (-122.299675 37.870407),94710
258,University Ave at Oxford St,37.872356,-122.26645,POINT (-122.26645 37.872356),94704
259,Addison St at Fourth St,37.86625,-122.29937,POINT (-122.29937 37.86625),94710
26,1st St at Folsom St,37.78729,-122.39438,POINT (-122.39438 37.78729),94105
262,West St at University Ave,37.86997,-122.28653,POINT (-122.28653 37.86997),94702
263,Channing Way at San Pablo Ave,37.862827,-122.29023,POINT (-122.29023 37.862827),94710
265,Ninth St at Parker St,37.858868,-122.29121,POINT (-122.29121 37.858868),94710
266,Parker St at Fulton St,37.862465,-122.26479,POINT (-122.26479 37.862465),94704
267,Derby St at College Ave,37.861805,-122.25357,POINT (-122.25357 37.861805),94705
268,Ellsworth St at Russell St,37.85749,-122.26158,POINT (-122.26158 37.85749),94705
269,Telegraph Ave at Carleton St,37.86232,-122.258804,POINT (-122.258804 37.86232),94704
27,Beale St at Harrison St,37.78806,-122.39187,POINT (-122.39187 37.78806),94105
270,Ninth St at Heinz Ave,37.85349,-122.28941,POINT (-122.28941 37.85349),94710
271,San Pablo Park,37.85578,-122.28313,POINT (-122.28313 37.85578),94702
272,Woolsey St at Sacramento St,37.85058,-122.278175,POINT (-122.278175 37.85058),94702
273,Fulton St at Ashby Ave,37.855576,-122.263565,POINT (-122.263565 37.855576),94705
274,Oregon St at Adeline St,37.857567,-122.267555,POINT (-122.267555 37.857567),94703
275,Julian St at 6th St,37.343,-121.888885,POINT (-121.888885 37.343),95112
276,Julian St at The Alameda,37.332233,-121.91251,POINT (-121.91251 37.332233),95126
277,W Julian St at N Morrison St,37.333675,-121.908615,POINT (-121.908615 37.333675),95126
278,The Alameda at Bush St,37.331932,-121.90489,POINT (-121.90489 37.331932),95126
279,Santa Clara St at 7th St,37.339146,-121.8841,POINT (-121.8841 37.339146),95112
28,The Embarcadero at Bryant St,37.787167,-122.3881,POINT (-122.3881 37.787167),94105
280,San Fernando at 7th St,37.337246,-121.88307,POINT (-121.88307 37.337246),95112
281,9th St at San Fernando,37.338394,-121.8808,POINT (-121.8808 37.338394),95112
282,Market St at Park St,37.332428,-121.89035,POINT (-121.89035 37.332428),95113
283,Delmas Ave and San Fernando St,37.330265,-121.897705,POINT (-121.897705 37.330265),95110
284,Yerba Buena Center for the Arts (Howard St at 3rd St),37.784874,-122.40088,POINT (-122.40088 37.784874),94103
285,Webster St at O'Farrell St,37.78352,-122.43116,POINT (-122.43116 37.78352),94115
286,San Carlos St at 11th St,37.336468,-121.87661,POINT (-121.87661 37.336468),95112
287,Almaden Blvd at Balbach St,37.32673,-121.889275,POINT (-121.889275 37.32673),95110
288,Mission St at 1st St,37.350964,-121.902016,POINT (-121.902016 37.350964),95112
289,5th St at Taylor St,37.350903,-121.89584,POINT (-121.89584 37.350903),95112
29,O'Farrell St at Divisadero St,37.782406,-122.439445,POINT (-122.439445 37.782406),94115
290,George St at 1st St,37.34759,-121.89966,POINT (-121.89966 37.34759),95110
291,Autumn Parkway at Coleman Ave,37.341335,-121.90318,POINT (-121.90318 37.341335),95110
292,Empire St at 1st St,37.344883,-121.896965,POINT (-121.896965 37.344883),95112
293,W St John St at Guadalupe River Trail,37.33539,-121.89792,POINT (-121.89792 37.33539),95110
294,Pierce Ave at Market St,37.32758,-121.88456,POINT (-121.88456 37.32758),95110
295,William St at 10th St,37.332794,-121.87592,POINT (-121.87592 37.332794),95112
296,5th St at Virginia St,37.326,-121.87712,POINT (-121.87712 37.326),95112
297,Locust St at Grant St,37.32298,-121.88793,POINT (-121.88793 37.32298),95110
298,Oak St at 1st St,37.322124,-121.88109,POINT (-121.88109 37.322124),95110
299,Bestor Art Park,37.323677,-121.874115,POINT (-121.874115 37.323677),95112
3,Powell St BART Station (Market St at 4th St),37.786377,-122.40491,POINT (-122.40491 37.786377),94102
30,San Francisco Caltrain (Townsend St at 4th St),37.7766,-122.39528,POINT (-122.39528 37.7766),94107
300,Palm St at Willow St,37.3173,-121.884995,POINT (-121.884995 37.3173),95110
301,Willow St at Vine St,37.31845,-121.88317,POINT (-121.88317 37.31845),95110
302,Tamien Station,37.312855,-121.88294,POINT (-121.88294 37.312855),95110
303,San Pedro St at Hedding St,37.3526,-121.90573,POINT (-121.90573 37.3526),95110
304,Jackson St at 5th St,37.34876,-121.8948,POINT (-121.8948 37.34876),95112
305,Ryland Park,37.342724,-121.895615,POINT (-121.895615 37.342724),95112
306,Saint James Park,37.339302,-121.88994,POINT (-121.88994 37.339302),95112
307,SAP Center,37.33269,-121.900085,POINT (-121.900085 37.33269),95113
308,San Pedro Square,37.336803,-121.89409,POINT (-121.89409 37.336803),95110
309,San Jose City Hall,37.33739,-121.88699,POINT (-121.88699 37.33739),95112
31,Raymond Kimbell Playground,37.783813,-122.434555,POINT (-122.434555 37.783813),94115
310,San Fernando St at 4th St,37.335884,-121.88566,POINT (-121.88566 37.335884),95112
311,Paseo De San Antonio at 2nd St,37.333797,-121.88694,POINT (-121.88694 37.333797),95113
312,San Jose Diridon Station,37.32973,-121.90178,POINT (-121.90178 37.32973),95110
313,Almaden Blvd at San Fernando St,37.331413,-121.8932,POINT (-121.8932 37.331413),95113
314,Santa Clara St at Almaden Blvd,37.33399,-121.894905,POINT (-121.894905 37.33399),95113
315,Market St at 45th St,37.834175,-122.272964,POINT (-122.272964 37.834175),94608
316,1st St at San Carlos St,37.33117,-121.88694,POINT (-121.88694 37.33117),95113
317,San Salvador St at 9th St,37.333954,-121.87735,POINT (-121.87735 37.333954),95112
318,San Carlos St at Market St,37.330696,-121.88898,POINT (-121.88898 37.330696),95113
321,5th St at Folsom,37.780148,-122.40307,POINT (-122.40307 37.780148),94107
323,Broadway at Kearny,37.79801,-122.40595,POINT (-122.40595 37.79801),94133
324,Union Square (Powell St at Post St),37.7883,-122.40853,POINT (-122.40853 37.7883),94102
327,5th St at San Salvador St,37.33204,-121.88177,POINT (-121.88177 37.33204),95112
329,San Jose Depot,37.344017,-121.91506,POINT (-121.91506 37.344017),95110
33,Golden Gate Ave at Hyde St,37.78165,-122.415405,POINT (-122.415405 37.78165),94102
336,Potrero Ave and Mariposa St,37.763283,-122.40738,POINT (-122.40738 37.763283),94110
337,Webster St at 19th St,37.80697,-122.26659,POINT (-122.26659 37.80697),94612
338,13th St at Franklin St,37.80319,-122.27058,POINT (-122.27058 37.80319),94612
339,Jackson St at 11th St,37.800003,-122.26644,POINT (-122.26644 37.800003),94607
34,Father Alfred E Boeddeker Park,37.78399,-122.41241,POINT (-122.41241 37.78399),94102
340,Harmon St at Adeline St,37.849735,-122.270584,POINT (-122.270584 37.849735),94703
341,Fountain Alley at S 2nd St,37.33619,-121.889275,POINT (-121.889275 37.33619),95113
342,Colin P Kelly Jr St at Townsend St (Temporary Site),37.781384,-122.38984,POINT (-122.38984 37.781384),94107
343,Bryant St at 2nd St,37.783173,-122.39357,POINT (-122.39357 37.783173),94107
344,16th St Depot,37.76635,-122.39629,POINT (-122.39629 37.76635),94107
345,Hubbell St at 16th St,37.766483,-122.39828,POINT (-122.39828 37.766483),94107
347,23rd St and San Bruno Ave,37.754436,-122.404366,POINT (-122.404366 37.754436),94110
349,Howard St at Mary St,37.78101,-122.40566,POINT (-122.40566 37.78101),94103
35,Cahill Park,37.329117,-121.90458,POINT (-121.90458 37.329117),95126
350,8th St at Brannan St,37.77143,-122.405785,POINT (-122.405785 37.77143),94103
351,10th St at University Ave,37.86906,-122.293396,POINT (-122.293396 37.86906),94710
352,Goettingen St at Bacon St,37.726944,-122.4066,POINT (-122.4066 37.726944),94134
355,23rd St at Tennessee St,37.755367,-122.388794,POINT (-122.388794 37.755367),94107
356,Valencia St at Clinton Park,37.769188,-122.42229,POINT (-122.42229 37.769188),94103
357,2nd St at Julian St,37.341133,-121.892845,POINT (-121.892845 37.341133),95112
358,Williams Ave at 3rd St,37.72928,-122.3929,POINT (-122.3929 37.72928),94124
359,Williams Ave at Apollo St,37.730167,-122.398964,POINT (-122.398964 37.730167),94124
36,Folsom St at 3rd St,37.78383,-122.39887,POINT (-122.39887 37.78383),94103
360,Newhall St at 3rd St,37.73857,-122.38962,POINT (-122.38962 37.73857),94124
361,Mendell St at Fairfax Ave,37.739853,-122.38566,POINT (-122.38566 37.739853),94124
362,Lane St at Revere Ave,37.731728,-122.39005,POINT (-122.39005 37.731728),94124
363,Salesforce Transit Center (Natoma St at 2nd St),37.78749,-122.398285,POINT (-122.398285 37.78749),94105
364,China Basin St at 3rd St,37.772,-122.38997,POINT (-122.38997 37.772),94158
365,Turk St at Fillmore St,37.78045,-122.431946,POINT (-122.431946 37.78045),94115
367,Outside Lands 2018 (Temporary Station),37.771103,-122.473656,POINT (-122.473656 37.771103),94118
368,Myrtle St at Polk St,37.785435,-122.419624,POINT (-122.419624 37.785435),94109
369,Hyde St at Post St,37.78735,-122.41665,POINT (-122.41665 37.78735),94109
37,2nd St at Folsom St,37.785378,-122.396904,POINT (-122.396904 37.785378),94105
370,Jones St at Post St,37.787327,-122.41328,POINT (-122.41328 37.787327),94102
371,Lombard St at Columbus Ave,37.802746,-122.41358,POINT (-122.41358 37.802746),94133
372,Madison St at 17th St,37.804035,-122.26241,POINT (-122.26241 37.804035),94612
373,Potrero del Sol Park (25th St at Utah St),37.751793,-122.40521,POINT (-122.40521 37.751793),94110
374,Viva Calle SJ,37.26331,-121.83333,POINT (-121.83333 37.26331),95136
375,Grove St at Masonic Ave,37.774837,-122.44655,POINT (-122.44655 37.774837),94117
376,Illinois St at 20th St,37.760456,-122.38754,POINT (-122.38754 37.760456),94107
377,Fell St at Stanyan St,37.77195,-122.453705,POINT (-122.453705 37.77195),94117
378,Empire St at 7th St,37.347744,-121.8908,POINT (-121.8908 37.347744),95112
38,The Embarcadero at Pier 38,37.782925,-122.387924,POINT (-122.387924 37.782925),94105
380,Masonic Ave at Turk St,37.779045,-122.44729,POINT (-122.44729 37.779045),94118
381,20th St at Dolores St,37.75824,-122.426094,POINT (-122.426094 37.75824),94114
383,Golden Gate Ave at Franklin St,37.78079,-122.421936,POINT (-122.421936 37.78079),94102
384,Jackson St at Polk St,37.79416,-122.42157,POINT (-122.42157 37.79416),94109
385,Woolsey St at Sacramento St,37.85058,-122.278175,POINT (-122.278175 37.85058),94702
386,24th St at Bartlett St,37.752106,-122.41972,POINT (-122.41972 37.752106),94110
387,Randall St at Chenery St,37.73981,-122.42552,POINT (-122.42552 37.73981),94131
388,Backesto Park (Jackson St at 13th St),37.352886,-121.88605,POINT (-121.88605 37.352886),95112
389,Taylor St at 9th St,37.35306,-121.89194,POINT (-121.89194 37.35306),95112
39,Scott St at Golden Gate Ave,37.779,-122.43686,POINT (-122.43686 37.779),94115
390,Indiana St at Cesar Chavez St,37.750435,-122.39045,POINT (-122.39045 37.750435),94107
391,1st St at Younger Ave,37.35503,-121.904434,POINT (-121.904434 37.35503),95112
392,Sonora Ave at 1st St,37.36406,-121.911736,POINT (-121.911736 37.36406),95110
393,Asbury St at The Alameda,37.338024,-121.91948,POINT (-121.91948 37.338024),95126
394,10th St at Empire St,37.349426,-121.88762,POINT (-121.88762 37.349426),95112
395,Kerley Dr at Rosemary St,37.360855,-121.90684,POINT (-121.90684 37.360855),95112
396,Metro Dr at Technology Dr,37.36768,-121.91879,POINT (-121.91879 37.36768),95110
397,Gish Rd at 1st St,37.361866,-121.90932,POINT (-121.90932 37.361866),95112
398,Leavenworth St at Broadway,37.79647,-122.416855,POINT (-122.416855 37.79647),94109
399,Bay St at Fillmore St,37.802635,-122.43629,POINT (-122.43629 37.802635),94123
4,Cyril Magnin St at Ellis St,37.78588,-122.40891,POINT (-122.40891 37.78588),94102
40,Laguna St at McAllister St,37.77921,-122.42683,POINT (-122.42683 37.77921),94102
400,Buchanan St at North Point St,37.80427,-122.43354,POINT (-122.43354 37.80427),94123
401,Skyport Dr at Technology Dr,37.365227,-121.91682,POINT (-121.91682 37.365227),95112
402,Raymond Bernal Jr Memorial Park (8th St at Hedding St),37.356834,-121.895935,POINT (-121.895935 37.356834),95112
403,10th St at Mission St,37.355694,-121.89225,POINT (-121.89225 37.355694),95112
404,21st St at Santa Clara St,37.34576,-121.87068,POINT (-121.87068 37.34576),95116
405,Sunol St at San Carlos St,37.323452,-121.905975,POINT (-121.905975 37.323452),95126
406,Parkmoor Ave at Race St,37.31674,-121.91,POINT (-121.91 37.31674),95126
407,Bird Ave at Coe Ave,37.31516,-121.897835,POINT (-121.897835 37.31516),95125
409,2100 Powell St,37.839542,-122.29872,POINT (-122.29872 37.839542),94608
41,Golden Gate Ave at Polk St,37.78127,-122.41874,POINT (-122.41874 37.78127),94102
410,Illinois St at Cesar Chavez St,37.7502,-122.386566,POINT (-122.386566 37.7502),94124
411,Octavia Blvd at Page St,37.774017,-122.423805,POINT (-122.423805 37.774017),94102
412,Glen Park BART Station,37.73281,-122.43414,POINT (-122.43414 37.73281),94131
413,Balboa Park BART Station,37.720554,-122.44772,POINT (-122.44772 37.720554),94112
415,Delmas Ave at Virginia St,37.319756,-121.893,POINT (-121.893 37.319756),95125
416,Auzerais Ave at Los Gatos Creek Trail,37.321182,-121.90309,POINT (-121.90309 37.321182),95126
417,Park Ave at Race St,37.32601,-121.91233,POINT (-121.91233 37.32601),95126
418,17th St at Santa Clara St,37.343987,-121.87438,POINT (-121.87438 37.343987),95112
419,Fern St at Polk St,37.788197,-122.42037,POINT (-122.42037 37.788197),94109
42,San Francisco City Hall (Polk St at Grove St),37.77865,-122.41823,POINT (-122.41823 37.77865),94102
421,23rd St at Taylor St,37.36,-121.87878,POINT (-121.87878 37.36),95112
422,Stockton Ave at Lenzen Ave,37.336773,-121.90915,POINT (-121.90915 37.336773),95126
423,South San Jose State (7th St at Humboldt St),37.320316,-121.8701,POINT (-121.8701 37.320316),95112
424,Greenwich St at Webster St,37.79921,-122.43412,POINT (-122.43412 37.79921),94123
425,Bird Ave at Willow St,37.311283,-121.896324,POINT (-121.896324 37.311283),95125
426,San Carlos St at Meridian Ave,37.323345,-121.9135,POINT (-121.9135 37.323345),95126
427,Auzerais Ave at Lincoln Ave,37.32097,-121.908295,POINT (-121.908295 37.32097),95126
428,Howard workshop - Station in a Box,37.774662,-122.416306,POINT (-122.416306 37.774662),94103
429,Prototype Lab,37.720036,-122.49524,POINT (-122.49524 37.720036),94132
43,San Francisco Public Library (Grove St at Hyde St),37.778767,-122.41593,POINT (-122.41593 37.778767),94102
431,Judson Ave at Gennessee St,37.728283,-122.45069,POINT (-122.45069 37.728283),94112
432,Quesada Ave at 3rd St,37.733093,-122.390976,POINT (-122.390976 37.733093),94124
433,Gennessee St at Monterey Blvd,37.731655,-122.45112,POINT (-122.45112 37.731655),94127
434,Carroll Ave at 3rd St,37.725376,-122.39402,POINT (-122.39402 37.725376),94124
435,Jennings St at Revere Ave,37.729393,-122.386536,POINT (-122.386536 37.729393),94124
436,McKinnon Ave at 3rd St,37.736298,-122.38997,POINT (-122.38997 37.736298),94124
437,Evans Ave at Mendell St,37.740177,-122.383736,POINT (-122.383736 37.740177),94124
438,Oakdale Ave at Phelps St,37.73685,-122.39425,POINT (-122.39425 37.73685),94124
439,Post St at Divisadero St,37.78437,-122.439476,POINT (-122.439476 37.78437),94115
44,Civic Center/UN Plaza BART Station (Market St at McAllister St),37.781075,-122.411736,POINT (-122.411736 37.781075),94103
440,Carl St at Cole St,37.76591,-122.44926,POINT (-122.44926 37.76591),94117
441,Chestnut St at Van Ness Ave,37.802288,-122.42451,POINT (-122.42451 37.802288),94109
442,Newbury Park Dr at King Rd,37.365536,-121.867966,POINT (-121.867966 37.365536),95133
443,3rd St at Keyes St,37.320866,-121.87628,POINT (-121.87628 37.320866),95112
444,Mercado Way at Sierra Rd,37.371117,-121.88133,POINT (-121.88133 37.371117),95133
445,Natoma St at New Montgomery St,37.786552,-122.399605,POINT (-122.399605 37.786552),94105
446,Mint St at Mission St,37.78228,-122.40731,POINT (-122.40731 37.78228),94103
45,5th St at Howard St,37.781754,-122.40513,POINT (-122.40513 37.781754),94103
450,Funston Ave at Irving St,37.763935,-122.47065,POINT (-122.47065 37.763935),94122
451,10th Ave at Irving St,37.76409,-122.46738,POINT (-122.46738 37.76409),94122
453,Brannan St at 4th St,37.777935,-122.39697,POINT (-122.39697 37.777935),94107
454,7th Ave at Cabrillo St,37.775177,-122.465004,POINT (-122.465004 37.775177),94118
455,McAllister St at Arguello Blvd,37.775215,-122.458336,POINT (-122.458336 37.775215),94118
456,Arguello Blvd at Geary Blvd,37.781467,-122.45881,POINT (-122.45881 37.781467),94118
457,7th Ave at Irving St,37.763435,-122.464066,POINT (-122.464066 37.763435),94122
458,Frederick St at Arguello Blvd,37.76578,-122.457634,POINT (-122.457634 37.76578),94117
459,Utah St at 24th St,37.753124,-122.405396,POINT (-122.405396 37.753124),94110
46,San Antonio Park,37.79014,-122.24237,POINT (-122.24237 37.79014),94606
460,Terry Francois Blvd at Warriors Way,37.769096,-122.38633,POINT (-122.38633 37.769096),94158
461,Terry Francois Blvd at Mission Bay Blvd N,37.771328,-122.38662,POINT (-122.38662 37.771328),94158
462,Cruise Terminal at Pier 27,37.80465,-122.402084,POINT (-122.402084 37.80465),94111
463,Heron's Head Park,37.740322,-122.376785,POINT (-122.376785 37.740322),94124
465,San Francisco Caltrain Station (King St at 4th St),37.77633,-122.39444,POINT (-122.39444 37.77633),94107
466,5th Ave at Anza St,37.779488,-122.46314,POINT (-122.46314 37.779488),94118
467,Brannan St at Colin P Kelly Jr St,37.782387,-122.39134,POINT (-122.39134 37.782387),94107
468,Grove St at Gough St,37.77787,-122.42295,POINT (-122.42295 37.77787),94102
469,Ellis St at Pierce St,37.781982,-122.43577,POINT (-122.43577 37.781982),94115
47,4th St at Harrison St,37.780956,-122.39975,POINT (-122.39975 37.780956),94107
470,N 14th St at E Santa Clara St,37.342663,-121.87729,POINT (-121.87729 37.342663),95112
471,Turk Blvd at Stanyan St,37.77761,-122.45462,POINT (-122.45462 37.77761),94118
472,Columbia Ave at Bird Ave,37.324127,-121.89972,POINT (-121.89972 37.324127),95126
473,Willow St at Blewett Ave,37.309013,-121.90001,POINT (-121.90001 37.309013),95125
474,14th Ave at Geary Blvd,37.78047,-122.472824,POINT (-122.472824 37.78047),94118
475,22nd St at William St,37.340378,-121.86402,POINT (-121.86402 37.340378),95116
476,19th St at William St,37.338467,-121.86652,POINT (-121.86652 37.338467),95116
477,17th Ave at Geary Blvd,37.78072,-122.476105,POINT (-122.476105 37.78072),94118
478,Greenwich St at Franklin St,37.800255,-122.42592,POINT (-122.42592 37.800255),94123
48,2nd St at S Park St,37.78241,-122.39271,POINT (-122.39271 37.78241),94107
480,Steiner St at California St,37.78857,-122.4354,POINT (-122.4354 37.78857),94115
481,O'Farrell St at Masonic Ave,37.78113,-122.44737,POINT (-122.44737 37.78113),94118
482,Brannan St at 7th St,37.77266,-122.40368,POINT (-122.40368 37.77266),94103
483,7th St at King St,37.77123,-122.40089,POINT (-122.40089 37.77123),94107
485,Funston Ave at Fulton St,37.773262,-122.47123,POINT (-122.47123 37.773262),94118
486,Arguello Blvd at Edward St,37.77849,-122.45865,POINT (-122.45865 37.77849),94118
487,Powell St at Columbus Ave,37.800495,-122.41089,POINT (-122.41089 37.800495),94133
488,Egbert Ave at Jennings St,37.72263,-122.392494,POINT (-122.392494 37.72263),94124
489,Funston Ave at Clement St,37.782497,-122.47197,POINT (-122.47197 37.782497),94118
49,S Park St at 3rd St,37.78076,-122.39499,POINT (-122.39499 37.78076),94107
490,9th Ave at Geary Blvd,37.78184,-122.467636,POINT (-122.467636 37.78184),94118
491,Devine St at San Pedro St,37.33867,-121.895645,POINT (-121.895645 37.33867),95110
492,Webster St at Clay St,37.790802,-122.43259,POINT (-122.43259 37.790802),94115
493,Folsom St at 7th St,37.776665,-122.407906,POINT (-122.407906 37.776665),94103
494,Park Ave at Laurel Grove Ln,37.326283,-121.904915,POINT (-121.904915 37.326283),95126
495,St James St at 9th St,37.34321,-121.88439,POINT (-121.88439 37.34321),95112
496,Green St at Van Ness Ave,37.797626,-122.42354,POINT (-122.42354 37.797626),94109
498,Frida Kahlo Way at Cloud Cir,37.72589,-122.452446,POINT (-122.452446 37.72589),94112
499,Otis St at Brady St,37.772305,-122.4198,POINT (-122.4198 37.772305),94103
5,Powell St BART Station (Market St at 5th St),37.7839,-122.40845,POINT (-122.40845 37.7839),94102
50,2nd St at Townsend St,37.780525,-122.39029,POINT (-122.39029 37.780525),94107
500,Battery St at Filbert St,37.802197,-122.40177,POINT (-122.40177 37.802197),94111
506,7th Ave at Clement St,37.78244,-122.46538,POINT (-122.46538 37.78244),94118
508,St. Joseph's Ave at Geary Blvd,37.782475,-122.442535,POINT (-122.442535 37.782475),94115
509,Evans Ave at Newhall St,37.742233,-122.38684,POINT (-122.38684 37.742233),94124
51,Parker Ave at McAllister St,37.7761,-122.453094,POINT (-122.453094 37.7761),94118
510,Post St at Webster St,37.785393,-122.43182,POINT (-122.43182 37.785393),94115
511,Anza St at Collins St,37.78068,-122.45001,POINT (-122.45001 37.78068),94118
512,Divisadero St at Clay St,37.78969,-122.44069,POINT (-122.44069 37.78969),94115
513,Alameda St at Henry Adams St,37.768547,-122.4044,POINT (-122.4044 37.768547),94103
514,Laurel St at California St,37.786694,-122.45008,POINT (-122.45008 37.786694),94118
515,18th Ave at California St,37.78511,-122.47767,POINT (-122.47767 37.78511),94121
516,Clement St at 32nd Ave,37.781723,-122.49284,POINT (-122.49284 37.781723),94121
517,Spruce St at California St,37.78658,-122.45342,POINT (-122.45342 37.78658),94118
518,22nd St at Potrero Ave,37.75681,-122.405945,POINT (-122.405945 37.75681),94110
52,McAllister St at Baker St,37.777416,-122.44184,POINT (-122.44184 37.777416),94115
520,23rd Ave at Clement St,37.78199,-122.4828,POINT (-122.4828 37.78199),94121
521,48th Ave at Cabrillo St,37.772953,-122.50907,POINT (-122.50907 37.772953),94121
53,Grove St at Divisadero,37.775948,-122.437775,POINT (-122.437775 37.775948),94117
54,Alamo Square (Steiner St at Fulton St),37.777546,-122.43327,POINT (-122.43327 37.777546),94117
55,Webster St at Grove St,37.777054,-122.42956,POINT (-122.42956 37.777054),94102
56,Koshland Park,37.773415,-122.427315,POINT (-122.427315 37.773415),94102
58,Market St at 10th St,37.77662,-122.41738,POINT (-122.41738 37.77662),94102
59,S Van Ness Ave at Market St,37.774815,-122.41895,POINT (-122.41895 37.774815),94103
6,The Embarcadero at Sansome St,37.80477,-122.40324,POINT (-122.40324 37.80477),94111
60,8th St at Ringold St,37.77452,-122.40945,POINT (-122.40945 37.77452),94103
61,Howard St at 8th St,37.776512,-122.41131,POINT (-122.41131 37.776512),94103
62,Victoria Manalo Draves Park,37.77779,-122.40643,POINT (-122.40643 37.77779),94103
63,Bryant St at 6th St,37.77591,-122.40257,POINT (-122.40257 37.77591),94103
64,5th St at Brannan St,37.776752,-122.39902,POINT (-122.39902 37.776752),94107
65,Emeryville Depot,37.830296,-122.28943,POINT (-122.28943 37.830296),94608
66,3rd St at Townsend St,37.77874,-122.39274,POINT (-122.39274 37.77874),94107
67,San Francisco Caltrain Station 2  (Townsend St at 4th St),37.776638,-122.39552,POINT (-122.39552 37.776638),94107
7,Frank H Ogawa Plaza,37.80456,-122.271736,POINT (-122.271736 37.80456),94612
70,Central Ave at Fell St,37.77331,-122.44429,POINT (-122.44429 37.77331),94117
71,Broderick St at Oak St,37.773064,-122.43908,POINT (-122.43908 37.773064),94117
72,Page St at Scott St,37.772408,-122.435646,POINT (-122.435646 37.772408),94117
73,Pierce St at Haight St,37.771793,-122.43371,POINT (-122.43371 37.771793),94117
74,Laguna St at Hayes St,37.776436,-122.42625,POINT (-122.42625 37.776436),94102
75,Market St at Franklin St,37.773792,-122.42124,POINT (-122.42124 37.773792),94102
76,McCoppin St at Valencia St,37.771664,-122.422424,POINT (-122.422424 37.771664),94103
77,11th St at Natoma St,37.773506,-122.41604,POINT (-122.41604 37.773506),94103
78,Folsom St at 9th St,37.773716,-122.411644,POINT (-122.411644 37.773716),94103
79,7th St at Brannan St,37.77349,-122.40367,POINT (-122.40367 37.77349),94103
8,The Embarcadero at Vallejo St,37.799953,-122.39852,POINT (-122.39852 37.799953),94111
80,Townsend St at 5th St,37.775234,-122.39744,POINT (-122.39744 37.775234),94107
81,Berry St at 4th St,37.77588,-122.39317,POINT (-122.39317 37.77588),94107
85,Church St at Duboce Ave,37.770084,-122.42915,POINT (-122.42915 37.770084),94114
86,Market St at Dolores St,37.769306,-122.42683,POINT (-122.42683 37.769306),94103
87,Folsom St at 13th St,37.769756,-122.41567,POINT (-122.41567 37.769756),94103
88,11th St at Bryant St,37.77003,-122.41173,POINT (-122.41173 37.77003),94103
89,Division St at Potrero Ave,37.76922,-122.407646,POINT (-122.407646 37.76922),94103
9,Broadway at Battery St,37.798573,-122.40087,POINT (-122.40087 37.798573),94111
90,Townsend St at 7th St,37.771057,-122.40272,POINT (-122.40272 37.771057),94103
91,Berry St at King St,37.771763,-122.39844,POINT (-122.39844 37.771763),94158
92,Mission Bay Kids Park,37.7723,-122.39303,POINT (-122.39303 37.7723),94158
93,4th St at Mission Bay Blvd S,37.77041,-122.3912,POINT (-122.3912 37.77041),94158
95,Sanchez St at 15th St,37.76622,-122.43106,POINT (-122.43106 37.76622),94114
96,Dolores St at 15th St,37.76621,-122.42661,POINT (-122.42661 37.76621),94114
97,14th St at Mission St,37.768265,-122.42011,POINT (-122.42011 37.768265),94103
98,Valencia St at 16th St,37.765053,-122.42187,POINT (-122.42187 37.765053),94103
99,Folsom St at 15th St,37.767036,-122.41544,POINT (-122.41544 37.767036),94103
SF-J28-2,Brannan St at 4th St,37.778,-122.39686,POINT (-122.39686 37.778),94107
SF-J29,San Francisco Caltrain (Townsend St at 4th St),37.77681,-122.39529,POINT (-122.39529 37.77681),94107
BK-A3,College Ave at Alcatraz Ave,37.851376,-122.252525,POINT (-122.252525 37.851376),94705
SF-I29-2,S Park St at 3rd St,37.78076,-122.39499,POINT (-122.39499 37.78076),94107
SF-F29,Howard St at Beale St,37.790314,-122.394585,POINT (-122.394585 37.790314),94105
SF-G29-2,1st St at Folsom St,37.787575,-122.395134,POINT (-122.395134 37.787575),94105
SF-L29,Mission Bay Kids Park,37.7723,-122.39303,POINT (-122.39303 37.7723),94158
SF-G29-3,Tehama St at 1st St,37.788033,-122.39562,POINT (-122.39562 37.788033),94105
SF I29-1,Bryant St at 2nd St,37.7835,-122.39319,POINT (-122.39319 37.7835),94107
SF-E29-1,San Francisco Ferry Building (Harry Bridges Plaza),37.795364,-122.39427,POINT (-122.39427 37.795364),94105
SF-F30-1,The Embarcadero at Steuart St,37.7914,-122.39104,POINT (-122.39104 37.7914),94105
SF-J29-1,3rd St at Townsend St,37.778587,-122.392555,POINT (-122.392555 37.778587),94107
SF-G30-2,The Embarcadero at Bryant St,37.787346,-122.38814,POINT (-122.38814 37.787346),94105
SF-K29-1,Berry St at 4th St,37.77588,-122.39317,POINT (-122.39317 37.77588),94107
SF-G30-1,Beale St at Harrison St,37.787964,-122.39181,POINT (-122.39181 37.787964),94105
SF-Y30,Jennings St at Revere Ave,37.729393,-122.386536,POINT (-122.386536 37.729393),94124
SF-Y29,Williams Ave at 3rd St,37.72928,-122.3929,POINT (-122.3929 37.72928),94124
SF-L30-1,4th St at Mission Bay Blvd S,37.77038,-122.391266,POINT (-122.391266 37.77038),94158
SF-X29,Quesada Ave at 3rd St,37.73316,-122.39098,POINT (-122.39098 37.73316),94124
SF-S29,Indiana St at Cesar Chavez St,37.750446,-122.39037,POINT (-122.39037 37.750446),94107
SF-I30-2,Brannan St at Colin P Kelly Jr St,37.782387,-122.39134,POINT (-122.39134 37.782387),94107
SF-K30-2,China Basin St at 3rd St,37.772,-122.38997,POINT (-122.38997 37.772),94158
SF-F30-2,Spear St at Folsom St,37.78978,-122.390465,POINT (-122.390465 37.78978),94107
SF-M30,4th St at 16th St,37.767044,-122.39083,POINT (-122.39083 37.767044),94158
SF-I30,2nd St at Townsend St,37.78054,-122.39041,POINT (-122.39041 37.78054),94107
SF-O30,Esprit Park,37.761635,-122.39065,POINT (-122.39065 37.761635),94107
SF-X30,Lane St at Revere Ave,37.73189,-122.39001,POINT (-122.39001 37.73189),94124
SF-O30-2,Illinois St at 20th St,37.76034,-122.38745,POINT (-122.38745 37.76034),94107
SF-L31-1,Terry Francois Blvd at Mission Bay Blvd N,37.771328,-122.38662,POINT (-122.38662 37.771328),94158
SF-H30,The Embarcadero at Pier 38,37.78316,-122.38799,POINT (-122.38799 37.78316),94105
OK-B1,Alcatraz Ave at Shattuck Ave,37.849594,-122.26557,POINT (-122.26557 37.849594),94609
OK-C5,College Ave at Bryant Ave,37.838127,-122.251274,POINT (-122.251274 37.838127),94618
OK-D3-1,Shattuck Ave at 55th St,37.840363,-122.26449,POINT (-122.26449 37.840363),94609
SF-Q30,23rd St at Tennessee St,37.755367,-122.388794,POINT (-122.388794 37.755367),94107
SF-U30,Evans Ave at Newhall St,37.742287,-122.38687,POINT (-122.38687 37.742287),94124
SF-S30,Illinois St at Cesar Chavez St,37.750107,-122.386505,POINT (-122.386505 37.750107),94124
OK-E5,45th St at Manila,37.833294,-122.256226,POINT (-122.256226 37.833294),94609
OK-F5,Broadway at 40th St,37.82776,-122.256714,POINT (-122.256714 37.82776),94609
OK-L15,26th Ave at International Blvd,37.781124,-122.232994,POINT (-122.232994 37.781124),94601
OK-L17,Foothill Blvd at Harrington Ave,37.77993,-122.21773,POINT (-122.21773 37.77993),94601
OK-M16,Fruitvale Ave at International Blvd,37.778057,-122.2254,POINT (-122.2254 37.778057),94601
OK-N6,Jack London Square,37.79625,-122.27935,POINT (-122.27935 37.79625),94607
OK-M7,Lake Merritt BART Station,37.79732,-122.26532,POINT (-122.26532 37.79732),94607
SF-G24,Hyde St at Post St,37.787235,-122.41667,POINT (-122.41667 37.787235),94109
SF-G28-1,Howard St at 2nd St,37.78701,-122.39828,POINT (-122.39828 37.78701),94105
SF-H24,Golden Gate Ave at Hyde St,37.781673,-122.415276,POINT (-122.415276 37.781673),94102
SF-M30-2,Terry Francois Blvd at Warriors Way,37.769096,-122.38633,POINT (-122.38633 37.769096),94158
SF-W14,Gennessee St at Monterey Blvd,37.731762,-122.451096,POINT (-122.451096 37.731762),94127
SF-W19,Glen Park BART Station,37.73301,-122.43416,POINT (-122.43416 37.73301),94131
SF-W19-2,Arlington St at Roanoke St,37.734962,-122.42971,POINT (-122.42971 37.734962),94131
SF-W29,McKinnon Ave at 3rd St,37.736332,-122.38993,POINT (-122.38993 37.736332),94124
SF-V29,Jerrold Ave at 3rd St,37.73897,-122.38955,POINT (-122.38955 37.73897),94124
SF-V30,Mendell St at Fairfax Ave,37.73984,-122.38565,POINT (-122.38565 37.73984),94124
SF-V32,Heron's Head Park,37.740322,-122.376785,POINT (-122.376785 37.740322),94124
SF-V31,Evans Ave at Mendell St,37.74005,-122.38343,POINT (-122.38343 37.74005),94124
SJ-H12,10th St at Mission St,37.355694,-121.89225,POINT (-121.89225 37.355694),95112
SJ-M9-1,Market St at Park St,37.332344,-121.89038,POINT (-121.89038 37.332344),95113
SJ-L11,St James St at 9th St,37.343018,-121.88453,POINT (-121.88453 37.343018),95112
SJ-L12,N 14th St at E Santa Clara St,37.342663,-121.87729,POINT (-121.87729 37.342663),95112
SJ-L13,17th St at Santa Clara St,37.344044,-121.87446,POINT (-121.87446 37.344044),95112
SJ-L7-1,SAP Center,37.333218,-121.90014,POINT (-121.90014 37.333218),95110
SJ-L7-2,The Alameda at Bush St,37.331932,-121.90489,POINT (-121.90489 37.331932),95126
SJ-L9,San Pedro Square,37.336803,-121.89409,POINT (-121.89409 37.336803),95110
SJ-L9-2,Devine St at San Pedro St,37.338654,-121.89577,POINT (-121.89577 37.338654),95110
SJ-M10-1,San Jose City Hall,37.337555,-121.886925,POINT (-121.886925 37.337555),95112
